address,address_formatted,latitude,longitude
nan,,,
"Giesen, Niedersachsen","Giesen, Germany",52.1959032,9.8965274
"Schönbrunn, Thüringen","Schönbrunn, 98667 Schleusegrund, Germany",50.5199534,10.8753445
"Nauen, Brandenburg","Nauen, Germany",52.6069165,12.8814887
"Großheirath, Bayern","96269 Großheirath, Germany",50.1760464,10.9510297
"Murg, Baden-Württemberg","79730 Murg, Germany",47.5559793,8.024303999999999
"Gernsbach, Baden-Württemberg","76593 Gernsbach, Germany",48.763178,8.3437129
"Hann. Münden, Niedersachsen","34346 Hann. Münden, Germany",51.419285,9.6557588
"Biebesheim, Hessen","64584 Biebesheim am Rhein, Germany",49.7792822,8.4743923
"Geisweid, Siegen, Nordrhein-Westfalen","Geisweid, 57078 Siegen, Germany",50.9137064,8.0084342
"Rutesheim, Baden-Württemberg","Rutesheim, Germany",48.80815,8.9455036
"Kiel, Schleswig-Holstein","Kiel, Germany",54.3232927,10.1227652
"Much, Nordrhein-Westfalen","53804 Much, Germany",50.90397309999999,7.4022887
"Lebach, Saarland","66822 Lebach, Germany",49.4039607,6.9045054
"Kolenfeld, Wunstorf, Niedersachsen","Kolenfeld, 31515 Wunstorf, Germany",52.38749809999999,9.4542782
"Mainz, Hessen","Mainz, Germany",49.9928617,8.2472526
"Benneckenstein , Sachsen-Anhalt","Benneckenstein, Germany",51.664129,10.7218641
"Hermannsburg, Niedersachsen","Hermannsburg, Südheide, Germany",52.8315279,10.090157
"Stendal, Sachsen-Anhalt","Stendal, Germany",52.6041444,11.8517729
"Wismar , Mecklenburg-Vorpommern","Wismar, Germany",53.8879706,11.4621371
"Kaufbeuren, Bayern","87600 Kaufbeuren, Germany",47.8830175,10.625966
"Wippenfürth, Nordrhein-Westfalen","51688 Wipperfürth, Germany",51.1180108,7.395541700000001
"Schmölln, Thüringen","04626 Schmölln, Germany",50.89543399999999,12.3550615
"Vierkirchen, Bayern","85256 Vierkirchen, Germany",48.3649991,11.4598466
"Clausthal-Zellerfeld, Niedersachsen","38678 Clausthal-Zellerfeld, Germany",51.8080063,10.340707
"Wettringen, Nordrhein-Westfalen","48493 Wettringen, Germany",52.20855599999999,7.317988999999999
"Obertrubach, Bayern","91286 Obertrubach, Germany",49.695125,11.3462419
"Straßkirchen, Bayern","94342 Straßkirchen, Germany",48.8302117,12.7234462
"Mannheim, Baden-Württemberg","Mannheim, Germany",49.4874592,8.466039499999999
"Hünxe, Nordrhein-Westfalen","46569 Hünxe, Germany",51.64111990000001,6.7676165
"Meißen, Sachsen","Meissen, Germany",51.1617842,13.4976592
"Angermünde, Brandenburg","Angermünde, Germany",53.0145422,13.996593
"Hattersheim am Main, Hessen","Hattersheim am Main, Germany",50.0695728,8.487226699999999
"Peißen (Landsberg), Sachsen-Anhalt","Peißen, Landsberg, Germany",51.5022835,12.0579382
"Nusse, Schleswig-Holstein","23896 Nusse, Germany",53.657208,10.5804476
"Bliesdorf, Brandenburg","Bliesdorf, Germany",52.69308909999999,14.1588173
"Lingen (Ems), Niedersachsen","Lingen, Germany",52.54030789999999,7.329286199999999
"Arnsberg, Nordrhein-Westfalen","Arnsberg, Germany",51.4073375,8.052771
"Greußen, Thüringen","99718 Greußen, Germany",51.22824,10.94823
"Bissendorf, Niedersachsen","49143 Bissendorf, Germany",52.2377707,8.1702838
"Preußisch Oldendorf, Nordrhein-Westfalen","32361 Preußisch Oldendorf, Germany",52.3059095,8.489118999999999
"Aichbach, Bayern","86551 Aichach, Germany",48.4588516,11.1328472
"Althusried, Bayern","87452 Altusried, Germany",47.8043878,10.2150696
"Gröden, Brandenburg","Gröden, Germany",51.4039954,13.5729398
"Laußig, Sachsen","Laußig, Germany",51.5469756,12.6334526
"Neusalza-Spremberg, Sachsen","Neusalza-Spremberg, Germany",51.0380155,14.5276012
"Herrischried, Baden-Württemberg","79737 Herrischried, Germany",47.6662711,8.001226299999999
"Wurzen, Sachsen","Wurzen, Germany",51.36988059999999,12.7436557
"Tannhausen, Baden-Württemberg","Tannhausen, Germany",48.9778281,10.3630189
"Bad Rappenau, Baden-Württemberg","74906 Bad Rappenau, Germany",49.24016899999999,9.1020153
"Schöllnach, Bayern","Schöllnach, Germany",48.7538973,13.1772833
"Rosdorf, Niedersachsen","Rosdorf, Germany",51.50648,9.90029
"Friedrichshain, Berlin","Friedrichshain, Berlin, Germany",52.51582399999999,13.4539891
"Quedlinburg, Sachsen-Anhalt","Quedlinburg, Germany",51.7920562,11.141448
"Rammelsbach, Rheinland-Pfalz","Rammelsbach, Germany",49.5403786,7.442852200000001
"Steinheim an der Murr, Baden-Württemberg","71711 Steinheim an der Murr, Germany",48.9691889,9.276239700000001
"Schwanfeld, Bayern","Schwanfeld, Germany",49.9221423,10.1375434
"Calbe, Sachsen-Anhalt","39240 Calbe, Germany",51.9046792,11.7712671
"Löwenberger Land, Brandenburg","Löwenberger Land, Germany",52.894712,13.1859903
"Dattenberg, Rheinland-Pfalz","Dattenberg, Germany",50.5532623,7.292199300000001
"Bermatingen, Baden-Württemberg","88697 Bermatingen, Germany",47.731099,9.348192
"Hildesheim, Niedersachsen","Hildesheim, Germany",52.154778,9.9579652
"Rottbitze, Nordrhein-Westfalen","Rottbitze, 53604 Bad Honnef, Germany",50.6483193,7.322043799999999
"Ebersbach-Neugersdorf, Sachsen","Ebersbach, Germany",51.0040105,14.5905347
"Choren, Döbeln, Sachsen","Choren, 04720 Mochau, Germany",51.1002381,13.2449925
"Geroldsgrün, Bayern","95179 Geroldsgrün, Germany",50.3363216,11.5953878
"Haunsheim, Bayern","89437 Haunsheim, Germany",48.59907219999999,10.376067
"Vilshofen, Bayern","94474 Vilshofen an der Donau, Germany",48.6270454,13.1829237
"Farmsen, Hamburg","Farmsen-Berne, Hamburg, Germany",53.6107299,10.116584
"Losheim, Saarland","66679 Losheim am See, Germany",49.5092435,6.7463209
"Herzogenrath, Nordrhein-Westfalen","52134 Herzogenrath, Germany",50.8649918,6.091241000000001
"Sankt Ingbert, Saarland","66386 Sankt Ingbert, Germany",49.2774456,7.1118995
"Viereck, Pasewalk, Mecklenburg-Vorpommern","17309 Pasewalk, Germany",53.5038857,13.999031
"Roitzsch, Sachsen-Anhalt","Roitzsch, 06809 Sandersdorf-Brehna, Germany",51.5766582,12.2659289
"Raunheim, Hessen","Raunheim, Germany",50.0104109,8.4529177
"Münsterdorf, Schleswig-Holstein","Münsterdorf, Germany",53.9023662,9.541309499999999
"Buch, Berlin","Buch, Berlin, Germany",52.64140099999999,13.496539
"Bodman-Ludwigshafen, Baden-Württemberg","78351 Bodman-Ludwigshafen, Germany",47.8185773,9.055827599999999
"Graben-Neudorf, Rheinland-Pfalz","76676 Graben-Neudorf, Germany",49.1605184,8.484947199999999
"Prohlis, Dresden, Sachsen","Prohlis, Dresden, Germany",51.0035521,13.7906402
"Langewiesen, Thüringen","Langewiesen, Ilmenau, Germany",50.6724486,10.9710759
"Kyritz, Brandenburg","Kyritz, Germany",52.9432288,12.3961712
"Bayreuth, Bayern","Bayreuth, Germany",49.9456399,11.5713346
"Offenheim, Rheinland-Pfalz","55234 Offenheim, Germany",49.726353,8.031593599999999
"Rheinbach, Nordrhein-Westfalen","53359 Rheinbach, Germany",50.625307,6.9477005
"Illingen, Baden-Württemberg","75428 Illingen, Germany",48.9562888,8.9256999
"Sersheim, Baden-Württemberg","Sersheim, Germany",48.9588468,9.012917
"Lauenförde, Niedersachsen","Lauenförde, Germany",51.6599515,9.387749099999999
"Delmenhorst, Niedersachsen","Delmenhorst, Germany",53.0521886,8.635593199999999
"Weißwasser, Sachsen","Weißwasser, Germany",51.50435179999999,14.6345926
"Berlin-Johannisthal, Berlin","Johannisthal, Berlin, Germany",52.4367582,13.5039931
"Geiersthal, Bayern","94244 Geiersthal, Germany",49.04649329999999,12.9799783
"Langerwehe, Nordrhein-Westfalen","52379 Langerwehe, Germany",50.81580109999999,6.362345299999999
"Schellerten, Niedersachsen","Schellerten, Germany",52.18695409999999,10.1019261
"Kleinmachnow, Brandenburg","14532 Kleinmachnow, Germany",52.4079274,13.2227111
"Erkrath, Nordrhein-Westfalen","40699 Erkrath, Germany",51.2213125,6.9073473
"Billigheim, Baden-Württemberg","74842 Billigheim, Germany",49.3475835,9.2542779
"Witzenhausen, Hessen","Witzenhausen, Germany",51.33996819999999,9.8555643
"Schlüsselfeld, Bayern","96132 Schlüsselfeld, Germany",49.75751330000001,10.6228929
"Beverstedt, Niedersachsen","27616 Beverstedt, Germany",53.43178649999999,8.8211116
"Marienheide, Nordrhein-Westfalen","51709 Marienheide, Germany",51.0833907,7.5311408
"Kuchen, Baden-Württemberg","Kuchen, Germany",48.6390543,9.7992577
"Taucha, Sachsen","Taucha, Germany",51.3798014,12.495054
"Kleinwallstadt, Bayern","Kleinwallstadt, Germany",49.8722681,9.1667763
"Hildburghausen , Thüringen","98646 Hildburghausen, Germany",50.4263293,10.7312097
"Hennigsdorf, Brandenburg","16761 Hennigsdorf, Germany",52.6320478,13.2011404
"Lichtenstein in Sachsen, Sachsen","Lichtenstein, Germany",50.75481689999999,12.6271344
"Bad Blankenburg, Thüringen","Bad Blankenburg, Germany",50.6823516,11.2705981
"Pliezhausen, Baden-Württemberg","72124 Pliezhausen, Germany",48.5618552,9.2020103
"Breisach am Rhein, Baden-Württemberg","79206 Breisach, Germany",48.0348382,7.5836067
"Großröhrsdorf, Sachsen","Großröhrsdorf, Germany",51.1457269,14.0271506
"Schloßholte-Stukenbrock, Nordrhein-Westfalen","Schloß Holte-Stukenbrock, 33758 Schloß Holte-Stukenbrock, Germany",51.88311539999999,8.661740199999999
"Schöningen, Niedersachsen","38364 Schöningen, Germany",52.1394882,10.9661706
"Brandenburg/Havel, Brandenburg","Brandenburg, Germany",52.4125287,12.5316444
"Weil am Rhein, Baden-Württemberg","79576 Weil am Rhein, Germany",47.5934368,7.6198121
"Wolkenstein, Sachsen","Wolkenstein, Germany",50.6558998,13.0703273
"Querfurt, Sachsen-Anhalt","06268 Querfurt, Germany",51.3812676,11.6041294
"Bad Schandau, Sachsen","Bad Schandau, Germany",50.9178255,14.1526727
"Neunburg vorm Wald, Bayern","92431 Neunburg vorm Wald, Germany",49.3453846,12.3833592
"Fürstenzell, Bayern","94081 Fürstenzell, Germany",48.5226292,13.317774
"Brieselang, Brandenburg","Brieselang, Germany",52.5887167,12.993372
"Renningen, Baden-Württemberg","Renningen, Germany",48.7716629,8.9343957
"Kerpen, Nordrhein-Westfalen","Kerpen, Germany",50.8747592,6.6883728
"Bad Bocklet, Bayern","Bad Bocklet, Germany",50.2663171,10.0791174
"Söhre, Niedersachsen","Söhre, 31199 Diekholzen, Germany",52.100823,9.9609857
"Immenstadt, Bayern","Immenstadt, Germany",47.5592213,10.2206641
"Obing, Bayern","83119 Obing, Germany",47.99858649999999,12.4054584
"Brück, Brandenburg","14822 Brück, Germany",52.1866424,12.7611011
"Herrnburg, Mecklenburg-Vorpommern","Herrnburg, 23923 Lüdersdorf, Germany",53.84012629999999,10.7581672
"Reinsdorf, Sachsen","Reinsdorf, Germany",50.69754140000001,12.55455
"Ahlbeck, Mecklenburg-Vorpommern","Ahlbeck, Heringsdorf, Germany",53.9406282,14.1874733
"Otter, Niedersachsen","Otter, Germany",53.2398418,9.7404952
"Oschatz, Sachsen","Oschatz, Germany",51.3006128,13.1059825
"Köpenick, Berlin, Berlin","Köpenick, Berlin, Germany",52.44260689999999,13.5822741
"Hellersdorf, Berlin, Berlin","Hellersdorf, Berlin, Germany",52.53663239999999,13.6049001
"Zossen, Brandenburg","Zossen, Germany",52.21697469999999,13.453792
"Heiligensee, Berlin, Berlin","Heiligensee, Berlin, Germany",52.6126856,13.2317796
"Rudolstadt, Thüringen","07407 Rudolstadt, Germany",50.7182972,11.3336548
"Steinach, Baden-Württemberg","77790 Steinach, Germany",48.3029087,8.0568954
"Dinslaken, Nordrhein-Westfalen","Dinslaken, Germany",51.5674264,6.747534
"Niederstotzingen, Baden-Württemberg","Niederstotzingen, Germany",48.5409435,10.2349893
"Müncheberg, Brandenburg","Müncheberg, Germany",52.5069173,14.1281615
"Friedewald, Rheinland-Pfalz","57520 Friedewald, Germany",50.7113412,7.961217100000001
"Pfeffenhausen, Bayern","84076 Pfeffenhausen, Germany",48.6657008,11.9649321
"Möhnesee, Nordrhein-Westfalen","59519 Möhnesee, Germany",51.47602999999999,8.123169899999999
"Neustadt an der Weinstraße, Rheinland-Pfalz","Neustadt, Germany",49.3501864,8.1486886
"Rabenau, Sachsen","Rabenau, Germany",50.964561,13.6432545
"Eckental, Bayern","Eckental, Germany",49.5741786,11.2013519
"Wetter an der Ruhr, Nordrhein-Westfalen","58300 Wetter, Germany",51.3860225,7.3914998
"Gößnitz, Thüringen","Gößnitz, Germany",50.8903586,12.4310906
"Mainstockheim, Bayern","Mainstockheim, Germany",49.7728863,10.151955
"Gerstungen, Thüringen","99834 Gerstungen, Germany",50.9635794,10.0671708
"Bernhaldswald, Bayern","Bernhardswald, Germany",49.1113181,12.2446439
"Kaunitz, Verl, Nordrhein-Westfalen","Kaunitz, 33415 Verl, Germany",51.8569969,8.5645039
"Eichstätt, Bayern","85072 Eichstätt, Germany",48.8910779,11.185239
"Engen, Baden-Württemberg","78234 Engen, Germany",47.854144,8.7737404
"Homberg, Hessen","34576 Homberg, Germany",51.0314351,9.4127239
"Alfdorf, Baden-Württemberg","73553 Alfdorf, Germany",48.8441943,9.722915799999999
"Heeslingen, Niedersachsen","27404 Heeslingen, Germany",53.317473,9.334387999999999
"Jördenstorf, Mecklenburg-Vorpommern","17168 Jördenstorf, Germany",53.8777467,12.6163264
"Leinefelde, Thüringen","Leinefelde-Worbis, Germany",51.4071434,10.3305838
"Stühlingen, Baden-Württemberg","79780 Stühlingen, Germany",47.74541869999999,8.4455184
"Kürten, Nordrhein-Westfalen","51515 Kürten, Germany",51.0532376,7.2634469
"Rhauderfehn, Niedersachsen","26817 Rhauderfehn, Germany",53.13582299999999,7.5746445
"Lohne, Niedersachsen","49393 Lohne, Germany",52.6505733,8.262597999999999
"Weilheim, Bayern","82362 Weilheim in Oberbayern, Germany",47.84223670000001,11.1427463
"Lauterbach, Hessen","36341 Lauterbach, Germany",50.6334203,9.3960153
"Bad Kleinen, Niedersachsen","Lower Saxony, Germany",52.6367036,9.8450765
"Melsungen, Hessen","34212 Melsungen, Germany",51.1276976,9.549567699999999
"Meiningen, Thüringen","98617 Meiningen, Germany",50.5739121,10.4190128
"Winkelhaid, Bayern","Winkelhaid, Germany",49.388065,11.3025295
"Geseke, Nordrhein-Westfalen","59590 Geseke, Germany",51.6393693,8.5067607
"Kremmen , Brandenburg","Kremmen, Germany",52.7621246,13.0286244
"Lippetal, Nordrhein-Westfalen","59510 Lippetal, Germany",51.6636877,8.1443208
"St. Wendel, Saarland","66606 Sankt Wendel, Germany",49.4677707,7.169062499999999
"Ellrich, Thüringen","Ellrich, Germany",51.5865458,10.6628882
"Timmendorfer Strand, Schleswig-Holstein","23669 Timmendorfer Strand, Germany",53.99206359999999,10.7789388
"Butzbach, Hessen","35510 Butzbach, Germany",50.43503579999999,8.6688418
"Schwäbisch Gmünd, Baden-Württemberg","Schwäbisch Gmünd, Germany",48.7994019,9.8045704
"Heiligenhaus, Nordrhein-Westfalen","Heiligenhaus, Germany",51.3273148,6.965595899999999
"Schloß Holte-Stukenbrock , Nordrhein-Westfalen","33758 Schloß Holte-Stukenbrock, Germany",51.9027288,8.6359771
"Schifferstadt, Rheinland-Pfalz","67105 Schifferstadt, Germany",49.3828647,8.376704799999999
"Dresden-Reick, Sachsen","Reick, Dresden, Germany",51.014621,13.7980605
"Viernheim, Hessen","68519 Viernheim, Germany",49.5412437,8.5784877
"Elmenhorst/Lichtenhagen, Mecklenburg-Vorpommern","Elmenhorst/Lichtenhagen, Germany",54.1556902,12.0119268
"Fraureuth, Sachsen","Fraureuth, Germany",50.7032324,12.3520009
"Sankt Augustin, Nordrhein-Westfalen","53757 Sankt Augustin, Germany",50.7694775,7.187578599999999
"Drolshagen, Nordrhein-Westfalen","57489 Drolshagen, Germany",51.0244556,7.770630199999999
"Eggingen, Baden-Württemberg","79805 Eggingen, Germany",47.6979742,8.393098
"Wohratal, Hessen","35288 Wohratal, Germany",50.9351956,8.946910400000002
"Merkers-Kieselbach, Thüringen","Merkers-Kieselbach, Krayenberggemeinde, Germany",50.818649,10.1203703
"Todtenweis, Bayern","86447 Todtenweis, Germany",48.5176521,10.9283297
"Jettingen-Scheppach, Bayern","Jettingen-Scheppach, Germany",48.3939093,10.4578772
"Beelitz, Brandenburg","14547 Beelitz, Germany",52.23900099999999,12.9700563
"Bismarck, Sachsen-Anhalt","Bismark, Germany",52.662257,11.5246096
"Gera, Thüringen","Gera, Germany",50.8850706,12.0807203
"Bürgel, Thüringen","Bürgel, Germany",50.9425886,11.7573096
"Kehl, Baden-Württemberg","Kehl, Germany",48.5788725,7.8160821
"Bremen, Bremen","Bremen, Germany",53.07929619999999,8.8016937
"Hohenfels, Baden-Württemberg","78355 Hohenfels, Germany",47.8849664,9.1082375
"Deidesheim, Rheinland-Pfalz","Deidesheim, Germany",49.4073438,8.1897316
"Coesfeld, Nordrhein-Westfalen","48653 Coesfeld, Germany",51.9382944,7.1675831
"Kahla, Thüringen","07768 Kahla, Germany",50.800241,11.5837085
"Klütz, Mecklenburg-Vorpommern","Klütz, Germany",53.9654908,11.1645933
"Tannenberg, Sachsen","Tannenberg, Germany",50.6049814,12.9491665
"Krölpa, Thüringen","Krölpa, Germany",50.67732059999999,11.5400021
"Torgelow, Mecklenburg-Vorpommern","Torgelow, Germany",53.6326919,14.0054798
"Dießen, Bayern","86911 Dießen am Ammersee, Germany",47.9479298,11.1032858
"Gotha, Thüringen","99867 Gotha, Germany",50.9474251,10.7097574
"Neckarbischofheim, Baden-Württemberg","74924 Neckarbischofsheim, Germany",49.2938214,8.9649065
"Demmin, Mecklenburg-Vorpommern","Demmin, Germany",53.9056285,13.0498414
"Karlsruhe, Baden-Württemberg","Karlsruhe, Germany",49.0068901,8.4036527
"Herscheid, Nordrhein-Westfalen","58849 Herscheid, Germany",51.17654,7.7480527
"Lienen, Nordrhein-Westfalen","49536 Lienen, Germany",52.1454016,7.9739032
"Dassow, Mecklenburg-Vorpommern","Dassow, Germany",53.90749779999999,10.9757366
"Neuseddin, Brandenburg","Neuseddin, Seddiner See, Germany",52.2826988,12.9761571
"Tengen, Baden-Württemberg","78250 Tengen, Germany",47.8191487,8.6613188
"Sandhausen, Baden-Württemberg","Sandhausen, Germany",49.3433925,8.6578996
"Herzberg am Harz, Niedersachsen","Herzberg am Harz, Germany",51.6514495,10.3379685
"Tribsees, Mecklenburg-Vorpommern","Tribsees, Germany",54.0914157,12.7601838
"Heide, Schleswig-Holstein","25746 Heide, Germany",54.19517639999999,9.1019015
"Adelschlag, Bayern","85111 Adelschlag, Germany",48.8395987,11.2185762
"Holthusen, Mecklenburg-Vorpommern","19075 Holthusen, Germany",53.5437872,11.3541338
"Höxmark, Schleswig-Holstein","Höxmark, 24398 Brodersby, Germany",54.6273857,10.0127041
"Rondorf, Köln, Nordrhein-Westfalen","Rondorf, 50997 Cologne, Germany",50.87439089999999,6.9346054
"Metten, Bayern","Metten, Germany",48.8562976,12.9132001
"Woltersdorf, Brandenburg","Woltersdorf, Germany",52.4551812,13.7493557
"Altlußheim, Baden-Württemberg","Altlußheim, Germany",49.2984042,8.5029595
"Spiegelberg, Baden-Württemberg","71579 Spiegelberg, Germany",49.0375029,9.4471366
"Nürnberg, Bayern","Nuremberg, Germany",49.4521018,11.0766654
"Dahlem, Berlin, Berlin","Dahlem, Berlin, Germany",52.4582353,13.2870827
"Greven-Reckenfeld, Nordrhein-Westfalen","Reckenfeld, 48268 Greven, Germany",52.1327644,7.5560974
"Remchingen, Baden-Württemberg","75196 Remchingen, Germany",48.9517157,8.5742128
"Obermaßfeld-Grimmenthal, Thüringen","98617 Obermaßfeld-Grimmenthal, Germany",50.5309232,10.4460898
"Immendingen, Baden-Württemberg","78194 Immendingen, Germany",47.9383007,8.734745199999999
"Bad Freienwalde, Brandenburg","Bad Freienwalde, Germany",52.78291609999999,14.0385706
"Urmitz, Rheinland-Pfalz","Urmitz, Germany",50.4137135,7.5209708
"Grimmen, Mecklenburg-Vorpommern","Grimmen, Germany",54.10814569999999,13.0377493
"Winsen (Luhe), Niedersachsen","21423 Winsen, Germany",53.3574436,10.2127204
"Hückeswagen, Nordrhein-Westfalen","42499 Hückeswagen, Germany",51.1490386,7.3293896
"Recklinghausen, Nordrhein-Westfalen","Recklinghausen, Germany",51.6117809,7.197388500000001
"Borchen, Nordrhein-Westfalen","33178 Borchen, Germany",51.6659316,8.7276375
"Geeste, Niedersachsen","49744 Geeste, Germany",52.6017948,7.2717158
"Hoppegarten, Brandenburg","15366 Hoppegarten, Germany",52.5145302,13.6741027
"Preetz, Schleswig-Holstein","24211 Preetz, Germany",54.232759,10.2782723
"Rheinfelden, Baden-Württemberg","79618 Rheinfelden, Germany",47.5896468,7.768778999999999
"Konradshöhe, Berlin, Berlin","Konradshöhe, Berlin, Germany",52.5837946,13.2267747
"Rockenhausen, Rheinland-Pfalz","67806 Rockenhausen, Germany",49.6311747,7.821553499999999
"Seelscheid, Nordrhein-Westfalen","Seelscheid, 53819 Neunkirchen-Seelscheid, Germany",50.8755039,7.3222836
"Lindenberg, Rheinland-Pfalz","Lindenberg, Germany",49.3813067,8.0962406
"Legde/Quitzöbel, Brandenburg","Legde/Quitzöbel, Germany",52.9179361,11.9634972
"Altlandsberg, Brandenburg","15345 Altlandsberg, Germany",52.5641091,13.7269051
"Neustadt an der Dosse, Brandenburg","Neustadt, Germany",52.8583917,12.4342718
"Sonnefeld, Bayern","96242 Sonnefeld, Germany",50.2220521,11.1329153
"Annabger-Buchholz, Sachsen","Annaberg-Buchholz, Germany",50.5851268,13.0149313
"Kelheim, Bayern","93309 Kelheim, Germany",48.9175771,11.8931689
"Sangershausen, Sachsen-Anhalt","Sangerhausen, Germany",51.54407519999999,11.2592293
"Tann in der Röhn, Hessen","36142 Tann, Germany",50.64475909999999,10.0089235
"Winnenden, Baden-Württemberg","71364 Winnenden, Germany",48.8750046,9.397142299999999
"Bad Hersfeld, Hessen","36251 Bad Hersfeld, Germany",50.8701345,9.7019675
"Helmstadt, Niedersachsen","38350 Helmstedt, Germany",52.2448398,11.0393101
"Bochum, Nordrhein-Westfalen","Bochum, Germany",51.4818445,7.216236299999999
"Neuruppin, Brandenburg","Neuruppin, Germany",52.9211097,12.8002556
"Bückeburg, Niedersachsen","31675 Bückeburg, Germany",52.2592762,9.052123300000002
"Frauenstein, Sachsen","Frauenstein, Germany",50.8012443,13.5372311
"Cloppenburg, Niedersachsen","49661 Cloppenburg, Germany",52.844198,8.053015799999999
"Amberg, Bayern","92224 Amberg, Germany",49.4403198,11.8633445
"Westerau, Schleswig-Holstein","23847 Westerau, Germany",53.77882899999999,10.4887842
"Überlingen, Baden-Württemberg","Überlingen, Germany",47.7661746,9.1702772
"Tübingen, Baden-Württemberg","Tübingen, Germany",48.5216364,9.0576448
"Meschede, Nordrhein-Westfalen","59872 Meschede, Germany",51.3511245,8.2851304
"Berlin-Hellersdorf, Berlin","Hellersdorf, Berlin, Germany",52.53663239999999,13.6049001
"Bergen, Bayern","83346 Bergen, Germany",47.8069947,12.590074
"Gröbenzell, Bayern","Gröbenzell, Germany",48.1932834,11.3752077
"Haßfurt, Bayern","97437 Haßfurt, Germany",50.0371575,10.5151523
"Zehdenick , Brandenburg","Zehdenick, Germany",52.9791731,13.3378948
"St. Ingbert, Saarland","66386 Sankt Ingbert, Germany",49.2774456,7.1118995
"Langenweddingen, Sachsen-Anhalt","Langenweddingen, 39171 Sülzetal, Germany",52.0351654,11.5268576
"Rhede, Nordrhein-Westfalen","46414 Rhede, Germany",51.8374545,6.6989532
"Amelinghausen, Niedersachsen","21385 Amelinghausen, Germany",53.1250632,10.2124198
"Bleicherode, Thüringen","Bleicherode, Germany",51.442105,10.5723532
"Hollern-Twielenfleth, Niedersachsen","Hollern-Twielenfleth, Germany",53.5921014,9.5505852
"Dillenburg, Hessen","Dillenburg, Germany",50.7452841,8.2807631
"Leimen, Baden-Württemberg","Leimen, Germany",49.34908979999999,8.687885099999999
"Nister, Rheinland-Pfalz","Nister, Germany",50.6755486,7.834872000000001
"Berlin-Mahlsdorf, Berlin","Mahlsdorf, 12623 Berlin, Germany",52.5048282,13.613407
"Olbernhau, Sachsen","Olbernhau, Germany",50.6588625,13.3383108
"Helbra, Sachsen-Anhalt","Helbra, Germany",51.5547945,11.4876165
"Teterow, Mecklenburg-Vorpommern","17166 Teterow, Germany",53.77524760000001,12.5748239
"Eisenberg (Pfalz), Rheinland-Pfalz","Eisenberg, Germany",49.5584321,8.065154600000001
"Pentling, Bayern","Pentling, Germany",48.9833268,12.0572285
"Feucht, Bayern","Feucht, Germany",49.3753539,11.2129142
"Weferlingen, Sachsen-Anhalt","39356 Weferlingen, Germany",52.3137073,11.0564429
"Neuhaus am Rennweg, Thüringen","Neuhaus am Rennweg, Germany",50.505899,11.1422983
"Warstade, Hemmoor, Niedersachsen","Warstade, 21745 Hemmoor, Germany",53.6887772,9.151847799999999
"Remscheid, Nordrhein-Westfalen","Remscheid, Germany",51.1787418,7.189696199999998
"Neumarkt in der Oberpfalz, Bayern","92318 Neumarkt in der Oberpfalz, Germany",49.2772606,11.4671996
"Rheine, Nordrhein-Westfalen","Rheine, Germany",52.2815691,7.443409200000001
"Dietramszell, Bayern","83623 Dietramszell, Germany",47.8545552,11.5888081
"Schulzendorf bei Eichenwalde, Brandenburg","Eichwalde, Germany",52.3738025,13.6237791
"Belm, Niedersachsen","49191 Belm, Germany",52.3043231,8.1284532
"Potsdam , Brandenburg","Potsdam, Germany",52.3905689,13.0644729
"Wernau am Neckar, Baden-Württemberg","Wernau, Germany",48.6914602,9.417933999999999
"Breitenworbis, Thüringen","37339 Breitenworbis, Germany",51.4128961,10.4268396
"Blankenburg, Berlin, Berlin","Blankenburg, Berlin, Germany",52.5943985,13.4547504
"Pankow, Berlin, Berlin","Pankow, Berlin, Germany",52.5928787,13.4317001
"Prangendorf, Mecklenburg-Vorpommern","Prangendorf, 18195 Cammin, Germany",54.0138422,12.3961772
"Forst Lausitz, Brandenburg","03149 Forst, Germany",51.7445739,14.6451394
"Aletshausen, Bayern","Aletshausen, Germany",48.197165,10.3895576
"Gaienhofen, Baden-Württemberg","78343 Gaienhofen, Germany",47.6822682,8.981919099999999
"Holzheim, Bayern","86684 Holzheim, Germany",48.6135844,10.9530363
"Kremmen, Brandenburg","Kremmen, Germany",52.7621246,13.0286244
"Staßfurt, Sachsen-Anhalt","Staßfurt, Germany",51.8608995,11.5790389
"Hannover, Niedersachsen","Hanover, Germany",52.3758916,9.732010400000002
"Kollmar, Schleswig-Holstein","25377 Kollmar, Germany",53.7300996,9.4932496
"Feldkirchen-Westerham, Bayern","83620 Feldkirchen-Westerham, Germany",47.9140623,11.8638687
"Friesoythe, Niedersachsen","26169 Friesoythe, Germany",53.0244916,7.8589508
"Kollnburg, Bayern","94262 Kollnburg, Germany",49.0474541,12.8590465
"Schöppenstedt, Niedersachsen","38170 Schöppenstedt, Germany",52.1454884,10.7760475
"Neuwied, Rheinland-Pfalz","Neuwied, Germany",50.4361866,7.4664546
"Altötting, Bayern","Altötting, Germany",48.2236975,12.6799462
"Ottendorf-Okrilla, Sachsen","Ottendorf-Okrilla, Germany",51.1831331,13.8321542
"Bohnsdorf, Berlin","Bohnsdorf, Berlin, Germany",52.39900069999999,13.5706371
"Mehrhoog, Hamminkeln, Nordrhein-Westfalen","Mehrhoog, 46499 Hamminkeln, Germany",51.7372525,6.5043921
"Dettingen unter Teck, Baden-Württemberg","73265 Dettingen unter Teck, Germany",48.62015,9.4516305
"Breitengüßbach, Bayern","Breitengüßbach, Germany",49.9725765,10.8905088
"Störnstein, Bayern","Störnstein, Germany",49.7309748,12.1999765
"Eichenzell, Hessen","36124 Eichenzell, Germany",50.4956465,9.6994866
"Mulfingen, Baden-Württemberg","74673 Mulfingen, Germany",49.34082129999999,9.802786
"Leiferde, Niedersachsen","38542 Leiferde, Germany",52.4378841,10.4361139
"Leutkirch im Allgäu, Baden-Württemberg","88299 Leutkirch im Allgäu, Germany",47.826741,10.0213851
"Dresden-Gorbitz, Sachsen","Gorbitz, Dresden, Germany",51.0424959,13.6648734
"Saterland, Niedersachsen","26683 Saterland, Germany",53.0443626,7.7375852
"Halstenbek, Schleswig-Holstein","25469 Halstenbek, Germany",53.6334656,9.8373283
"Geislingen an der Steige, Baden-Württemberg","73312 Geislingen, Germany",48.62151619999999,9.8294482
"Bad Lauterberg, Niedersachsen","Bad Lauterberg, Germany",51.6257436,10.46103
"Viechtach, Bayern","94234 Viechtach, Germany",49.0794562,12.8831956
"Zerbst, Sachsen-Anhalt","Zerbst, Germany",51.9669481,12.0846211
"Oberursel, Hessen","61440 Oberursel, Germany",50.2025478,8.5770309
"Soltau, Niedersachsen","29614 Soltau, Germany",52.9846914,9.842125
"Obergünzburg, Baden-Württemberg","87634 Obergünzburg, Germany",47.8469118,10.4202295
"Berlin- Marzahn/Hellersdorf, Berlin","Marzahn-Hellersdorf, Berlin, Germany",52.5229353,13.5765972
"Berlin-Kreuzberg, Berlin","Kreuzberg, Berlin, Germany",52.4983442,13.4065791
"Beiersdorf, Sachsen","Beiersdorf, Germany",51.0747989,14.5403853
"Berghülen, Baden-Württemberg","89180 Berghülen, Germany",48.4637389,9.761712
"Sebnitz, Thüringen","Sebnitz, Germany",50.97091169999999,14.273873
"Kürnach, Bayern","Kürnach, Germany",49.8454758,10.041345
"Geislingen, Baden-Württemberg","73312 Geislingen, Germany",48.62151619999999,9.8294482
"Vetschau, Brandenburg","Vetschau, Germany",51.783243,14.0757975
"Blankenfelde, Brandenburg","Blankenfelde-Mahlow, Germany",52.3480918,13.4036096
"Beucha, Sachsen","Beucha, Brandis, Germany",51.32257860000001,12.5713641
"Sehnde, Niedersachsen","Sehnde, Germany",52.3171922,9.967276499999999
"Nieder-Florstadt, Hessen","Nieder-Florstadt, 61197 Florstadt, Germany",50.3187302,8.8613577
"Pinnow, Brandenburg","16278 Pinnow, Germany",53.0638645,14.0862888
"Borgholzhausen, Nordrhein-Westfalen","33829 Borgholzhausen, Germany",52.10139299999999,8.3023338
"Neckarwestheim, Baden-Württemberg","Neckarwestheim, Germany",49.0460889,9.190855899999999
"Straubach, Bayern",,,
"Neu-Isenburg, Hessen","Neu-Isenburg, Germany",50.0522076,8.6952638
"Laupheim, Baden-Württemberg","88471 Laupheim, Germany",48.2303503,9.8829174
"Lichtenberg, Berlin, Berlin","Lichtenberg, Berlin, Germany",52.53359039999999,13.4998575
"Oberwesel, Rheinland-Pfalz","Oberwesel, Germany",50.1065003,7.727255100000001
"Raisting, Bayern","Raisting, Germany",47.9114137,11.1139826
"Weißensberg, Bayern","88138 Weißensberg, Germany",47.5813145,9.7253379
"Sauensiek, Niedersachsen","21644 Sauensiek, Germany",53.3869777,9.6005368
"Villingen-Schwenningen,, Baden-Württemberg","Villingen-Schwenningen, Germany",48.0594021,8.4640869
"Schladen, Niedersachsen","38315 Schladen, Germany",52.0197929,10.5465162
"Bad Segeberg, Schleswig-Holstein","23795 Bad Segeberg, Germany",53.9332035,10.3035862
"Völklingen, Saarland","66333 Völklingen, Germany",49.2556226,6.8588948
"Wiesmoor, Niedersachsen","26639 Wiesmoor, Germany",53.4161775,7.733744799999999
"Dessau-Roßlau, Sachsen-Anhalt","Dessau-Roßlau, Germany",51.84282779999999,12.2303935
"Beckum, Nordrhein-Westfalen","59269 Beckum, Germany",51.7561792,8.0425504
"Frankfurt, Brandenburg","Frankfurt an der Oder, Germany",52.3472237,14.5505673
"Nossen, Sachsen","Nossen, Germany",51.058317,13.2948865
"Hannoversch Münden, Niedersachsen","34346 Hann. Münden, Germany",51.419285,9.6557588
"Geyer, Sachsen","Geyer, Germany",50.6251691,12.9238914
"Munderkingen, Baden-Württemberg","Munderkingen, Germany",48.2397309,9.647781199999999
"Freiberg am Neckar, Baden-Württemberg","Freiberg, Germany",48.9334303,9.1992433
"Brandenburg, Brandenburg","Brandenburg, Germany",52.4125287,12.5316444
"Lindau, Bayern","88131 Lindau, Germany",47.5534983,9.6928605
"Meyenburg, Brandenburg","16945 Meyenburg, Germany",53.31273419999999,12.2423808
"Bad Soden-Salmünster, Hessen","63628 Bad Soden-Salmünster, Germany",50.2741053,9.3721825
"Wolfen, Sachsen-Anhalt","Wolfen, Bitterfeld-Wolfen, Germany",51.6629152,12.2698908
"Wackersdorf, Bayern","Wackersdorf, Germany",49.3146228,12.1783476
"Niederstetten, Baden-Württemberg","97996 Niederstetten, Germany",49.3994656,9.9194444
"Lindenberg im Allgäu, Bayern","Lindenberg im Allgäu, Germany",47.60339159999999,9.8879237
"Roetgen, Nordrhein-Westfalen","52159 Roetgen, Germany",50.6460743,6.2002932
"Urdenbach, Düsseldorf, Nordrhein-Westfalen","Düsseldorf-Urdenbach, Düsseldorf, Germany",51.14898100000001,6.867269800000001
"Germering, Bayern","82110 Germering, Germany",48.13518089999999,11.3690889
"Falkenstein im Vogtland, Sachsen","Falkenstein, Germany",50.4750046,12.3649754
"Gartz an der Oder, Brandenburg","Gartz, Germany",53.209362,14.3792465
"Arneburg, Sachsen-Anhalt","39596 Arneburg, Germany",52.6752377,12.0019591
"Süpplingen, Niedersachsen","38373 Süpplingen, Germany",52.2280261,10.9058809
"Schwerte , Nordrhein-Westfalen","58239 Schwerte, Germany",51.4289295,7.565631499999999
"Rathen, Sachsen","Rathen, Germany",50.9588487,14.0833004
"Deusmauer, Bayern","Deusmauer, 92355 Velburg, Germany",49.2527396,11.6221311
"Eslarn, Bayern","92693 Eslarn, Germany",49.58209590000001,12.5193822
"Wasserburg, Bayern","Wasserburg am Inn, Germany",48.0527463,12.224529
"Karlskron, Bayern","85123 Karlskron, Germany",48.6756214,11.4160151
"Treptow-Köpenick, Berlin","Treptow-Köpenick, Berlin, Germany",52.42035629999999,13.6200228
"Donauwörth, Bayern","86609 Donauworth, Germany",48.7185826,10.7778041
"Bad Rodach, Bayern","96476 Bad Rodach, Germany",50.3412945,10.7785343
"Stadte, Niedersachsen","Stade, Germany",53.59286179999999,9.4709494
"Obernzell, Bayern","94130 Obernzell, Germany",48.5553697,13.6385331
"Porta Westfalica, Nordrhein-Westfalen","32457 Porta Westfalica, Germany",52.2253083,8.9402185
"Schwaikheim, Baden-Württemberg","71409 Schwaikheim, Germany",48.8732234,9.3526778
"Dillingen an der Saar, Saarland","66763 Dillingen, Germany",49.3630559,6.726753200000001
"Schöneck, Sachsen","Schöneck, Germany",50.3936523,12.3356774
"Oelsnitz, Sachsen","Oelsnitz/Erzgebirge, Germany",50.7254764,12.6992796
"Rothenburg, Sachsen","Rothenburg, Germany",51.3357091,14.9665253
"Reinberg, Mecklenburg-Vorpommern","Reinberg, 18519 Sundhagen, Germany",54.2149789,13.2511409
"Pessin, Brandenburg","14641 Pessin, Germany",52.6415691,12.6660436
"Nebra (Unstrut), Sachsen-Anhalt","Nebra (Unstrut), Germany",51.2844475,11.5779416
"Waldsee, Rheinland-Pfalz","Waldsee, Germany",49.3951544,8.4393356
"Schriesheim, Baden-Württemberg","Schriesheim, Germany",49.4737672,8.661249999999999
"Manderscheid, Rheinland-Pfalz","Manderscheid, Germany",50.091853,6.8077296
"Merzenich, Nordrhein-Westfalen","52399 Merzenich, Germany",50.8284481,6.524548299999999
"Warendorf, Nordrhein-Westfalen","48231 Warendorf, Germany",51.9514351,7.984100100000001
"Rümmingen, Baden-Württemberg","Rümmingen, Germany",47.6429116,7.6421519
"Burbach, Nordrhein-Westfalen","Burbach, Germany",50.7455764,8.0803107
"Neukölln-Buckow, Berlin, Berlin","Buckow, Berlin, Germany",52.4236302,13.4366333
"Gengenbach, Baden-Württemberg","77723 Gengenbach, Germany",48.4098117,8.009599699999999
"Halle (Saale), Sachsen-Anhalt","Halle (Saale), Germany",51.49535669999999,11.9662371
"Schopfheim, Baden-Württemberg","79650 Schopfheim, Germany",47.6518603,7.8235713
"Hinterzarten, Baden-Württemberg","Hinterzarten, Germany",47.9057159,8.1055964
"Lam, Bayern","93462 Lam, Germany",49.1971846,13.0508905
"Weingarten, Baden-Württemberg","Weingarten, Germany",47.8096019,9.637983199999999
"Peitz, Brandenburg","03185 Peitz, Germany",51.8574226,14.4129511
"Ronneburg, Thüringen","Ronneburg, Germany",50.8638659,12.1843001
"Speyer, Rheinland-Pfalz","67346 Speyer, Germany",49.3172765,8.441217199999999
"Neupetershain, Brandenburg","Neupetershain, Germany",51.60673389999999,14.1633698
"Matzlow-Garwitz, Mecklenburg-Vorpommern","Matzlow-Garwitz, Germany",53.4517329,11.6943404
"Detern, Niedersachsen","Detern, Germany",53.2129072,7.6623145
"Bannewitz, Sachsen","Bannewitz, Germany",50.99378129999999,13.7180333
"Henningsdorf bei Berlin, Brandenburg","16761 Hennigsdorf, Germany",52.6320478,13.2011404
"Seevetal, Niedersachsen","Seevetal, Germany",53.3807019,10.0300811
"Türkheim, Bayern","86842 Türkheim, Germany",48.0616217,10.6427595
"Ströbitz, Cottbus, Brandenburg","Ströbitz, 03046 Cottbus, Germany",51.75936799999999,14.296837
"Gorbitz, Dresden, Sachsen","Gorbitz, Dresden, Germany",51.0424959,13.6648734
"Monheim, Bayern","86653 Monheim, Germany",48.8426674,10.8536544
"Thyrnau, Bayern","94136 Thyrnau, Germany",48.61514150000001,13.5370521
"Kroppen, Brandenburg","Kroppen, Germany",51.382304,13.7997386
"Bismark, Sachsen-Anhalt","Bismark, Germany",52.662257,11.5246096
"Rottach-Egern, Bayern","Rottach-Egern, Germany",47.6892024,11.7704106
"Alsleben (Saale), Sachsen-Anhalt","Alsleben, Germany",51.7001845,11.6791595
"Rheinhausen, Baden-Württemberg","79365 Rheinhausen, Germany",48.227521,7.711162599999999
"Schlieben, Brandenburg","04936 Schlieben, Germany",51.7227689,13.3819019
"Saarwellingen, Saarland","66793 Saarwellingen, Germany",49.3543745,6.8057285
"Sagard, Mecklenburg-Vorpommern","Sagard, Germany",54.5277768,13.55348
"Garbsen, Niedersachsen","Garbsen, Germany",52.4272509,9.5955146
"Radolfzell am See, Baden-Württemberg","78315 Radolfzell, Germany",47.745237,8.9669098
"Mühlheim an der Ruhr, Nordrhein-Westfalen","Mülheim, Germany",51.4185682,6.884522599999999
"Simmozheim , Baden-Württemberg","Simmozheim, Germany",48.7504285,8.812453399999999
"Idar-Oberstein, Rheinland-Pfalz","Idar-Oberstein, Germany",49.71452799999999,7.3071512
"Ortenburg, Bayern","94496 Ortenburg, Germany",48.5449942,13.224119
"Overath, Nordrhein-Westfalen","51491 Overath, Germany",50.93291989999999,7.282374099999999
"Medebach, Nordrhein-Westfalen","59964 Medebach, Germany",51.200192,8.7003377
"Freystadt, Bayern","92342 Freystadt, Germany",49.1980295,11.3334625
"Caputh, Brandenburg","Caputh, 14548 Schwielowsee, Germany",52.3356762,12.9861248
"Sande, Niedersachsen","26452 Sande, Germany",53.5014243,8.015672
"Altenbeken, Nordrhein-Westfalen","33184 Altenbeken, Germany",51.76152769999999,8.9452803
"Frohburg, Sachsen","Frohburg, Germany",51.0543541,12.5545434
"Zittau , Sachsen","Zittau, Germany",50.8999681,14.8029971
"Treffurt, Thüringen","Treffurt, Germany",51.1358509,10.2335542
"Harsleben, Sachsen-Anhalt","Harsleben, Germany",51.8695168,11.0983325
"Goch, Nordrhein-Westfalen","47574 Goch, Germany",51.679984,6.156552200000001
"Taunusstein-Hahn, Hessen","Hahn, 65232 Taunusstein, Germany",50.1427594,8.1586892
"Moritzburg, Sachsen","Moritzburg, Germany",51.1583087,13.6814347
"Billstedt, Hamburg, Hamburg","Billstedt, Hamburg, Germany",53.5388029,10.1272882
"Lübeck, Schleswig-Holstein","Lübeck, Germany",53.8654673,10.6865593
"Fallingbostel, Niedersachsen","29683 Bad Fallingbostel, Germany",52.8667555,9.6957633
"Warthausen, Baden-Württemberg","Warthausen, Germany",48.1275518,9.7933255
"Mülheim, Nordrhein-Westfalen","Mülheim, Germany",51.4185682,6.884522599999999
"Zweibrücken, Rheinland-Pfalz","66482 Zweibrücken, Germany",49.2450528,7.3634022
"Rieden, Bayern","92286 Rieden, Germany",49.3224318,11.9396553
"Remseck am Neckar, Baden-Württemberg","Remseck, Germany",48.8766534,9.2617893
"Straupitz, Brandenburg","15913 Straupitz, Germany",51.913456,14.1228089
"Altglienicke, Berlin, Berlin","Altglienicke, Berlin, Germany",52.4126625,13.5465149
"Pausa, Sachsen","Pausa, Pausa-Mühltroff, Germany",50.57984279999999,11.9965818
"Leibertingen, Baden-Württemberg","88637 Leibertingen, Germany",48.0426251,9.0125809
"Steinheim, Nordrhein-Westfalen","32839 Steinheim, Germany",51.8697655,9.0863893
"Sottrum, Niedersachsen","27367 Sottrum, Germany",53.1123973,9.2317413
"Detmold, Nordrhein-Westfalen","Detmold, Germany",51.9384783,8.868637999999999
"Westerkappeln, Nordrhein-Westfalen","49492 Westerkappeln, Germany",52.3151023,7.881704600000001
"Trappenkamp, Schleswig-Holstein","Trappenkamp, Germany",54.0401342,10.2156155
"Malsfeld, Hessen","34323 Malsfeld, Germany",51.0915158,9.5378968
"Maulburg, Baden-Württemberg","79689 Maulburg, Germany",47.6437738,7.7771817
"Ruhpolding, Bayern","83324 Ruhpolding, Germany",47.76077799999999,12.6497321
"Kruckow, Mecklenburg-Vorpommern","Kruckow, Germany",53.9003406,13.2413894
"Förderstedt, Sachsen-Anhalt","Förderstedt, 39443 Staßfurt, Germany",51.8983604,11.6351419
"Heidenheim an der Benz, Baden-Württemberg","Heidenheim, Germany",48.6785503,10.1506915
"Forchheim, Bayern","91301 Forchheim, Germany",49.7188374,11.0679502
"Neidenstein, Baden-Württemberg","Neidenstein, Germany",49.3194645,8.8923959
"Wietzen, Niedersachsen","31613 Wietzen, Germany",52.7101145,9.0731197
"Ainring, Bayern","83404 Ainring, Germany",47.8145816,12.9415464
"Saalfeld (Saale), Thüringen","Saalfeld, Germany",50.6492736,11.3661502
"Bernau bei Berlin, Brandenburg","Bernau bei Berlin, Germany",52.6874845,13.5672765
"Elbingerode, Sachsen-Anhalt","Elbingerode, Germany",51.7471129,10.8048325
"Hollenstedt, Niedersachsen","21279 Hollenstedt, Germany",53.365786,9.7145026
"Neumarkt, Bayern","92318 Neumarkt in der Oberpfalz, Germany",49.2772606,11.4671996
"Eggebek, Schleswig-Holstein","Eggebek, Germany",54.620711,9.3706718
"Denklingen, Bayern","86920 Denklingen, Germany",47.9140258,10.8495941
"Heilbad Heiligenstadt, Thüringen","37308 Heilbad Heiligenstadt, Germany",51.37702969999999,10.1439107
"Bernburg an der Saale, Sachsen-Anhalt","Bernburg, Germany",51.7916385,11.7400999
"Hechingen, Baden-Württemberg","72379 Hechingen, Germany",48.3538888,8.9613627
"Lauske, Weißenberg, Sachsen","Lauske, 02627 Weißenberg, Germany",51.1735133,14.6187477
"Steißlingen, Baden-Württemberg","78256 Steißlingen, Germany",47.7998935,8.9261673
"Schwarzenbruck, Bayern","Schwarzenbruck, Germany",49.3571412,11.242053
"Köthen in Anhalt, Sachsen-Anhalt","Köthen (Anhalt), Germany",51.7505762,11.9802357
"Sankt Andreasberg, Niedersachsen","37444 Sankt Andreasberg, Germany",51.7129547,10.5176932
"Fridingen an der Donau, Baden-Württemberg","Fridingen, Germany",48.0198988,8.9224625
"Radeburg, Sachsen","Radeburg, Germany",51.2129606,13.7232666
"Hof, Bayern","Hof, Germany",50.3135391,11.9127814
"Fehrbellin, Brandenburg","Fehrbellin, Germany",52.8109331,12.7721344
"Gerstetten, Baden-Württemberg","89547 Gerstetten, Germany",48.6225677,10.0195611
"Vreden, Nordrhein-Westfalen","48691 Vreden, Germany",52.03539439999999,6.824548699999999
"Empelde, Ronnenberg, Niedersachsen","Empelde, 30952 Ronnenberg, Germany",52.3416445,9.6709829
"Tirschenreuth, Bayern","95643 Tirschenreuth, Germany",49.8817388,12.3272219
"Isernhagen, Niedersachsen","Isernhagen, Germany",52.4780704,9.801697400000002
"Hohentengen am Hochrhein, Baden-Württemberg","79801 Hohentengen am Hochrhein, Germany",47.570611,8.4362841
"Plattenburg, Brandenburg","Plattenburg, Germany",52.9589526,12.0287781
"Gundelfingen, Baden-Württemberg","Gundelfingen, Germany",48.0424069,7.866946599999999
"Neuental, Hessen","34599 Neuental, Germany",51.0055114,9.2292501
"Bodenwerder, Niedersachsen","37619 Bodenwerder, Germany",51.9808093,9.5088879
"Mittenwalde, Brandenburg","15749 Mittenwalde, Germany",52.2653762,13.536654
"Siegen, Nordrhein-Westfalen","Siegen, Germany",50.8838492,8.020959099999999
"Bergheim, Nordrhein-Westfalen","Bergheim, Germany",50.9451945,6.6555022
"Harsum, Niedersachsen","Harsum, Germany",52.2099738,9.962941899999999
"Altenburg, Hessen","Altenburg, 36304 Alsfeld, Germany",50.735831,9.2770266
"Oestrich-Winkel, Hamburg","Oestrich, 65375 Oestrich-Winkel, Germany",50.0092606,8.0297947
"Bad Nenndorf, Niedersachsen","Bad Nenndorf, Germany",52.3378757,9.3743625
"Emmerting, Bayern","Emmerting, Germany",48.1994207,12.7684268
"Castrop-Rauxel, Nordrhein-Westfalen","Castrop-Rauxel, Germany",51.5632625,7.3150145
"Burgdorf, Niedersachsen","Burgdorf, Germany",52.4470203,10.005624
"Altenkirchen, Mecklenburg-Vorpommern","18556 Altenkirchen, Germany",54.6361938,13.3440315
"Kressbronn, Baden-Württemberg","Kressbronn am Bodensee, Germany",47.5968864,9.5982209
"Göggingen, Baden-Württemberg","Göggingen, Germany",48.8608674,9.8835717
"Vöhl, Hessen","34516 Vöhl, Germany",51.2052758,8.9442528
"Henningsdorf, Brandenburg","Hennigsdorf, 16761 Hennigsdorf, Germany",52.6215935,13.1929564
"Löwenstein, Baden-Württemberg","Löwenstein, Germany",49.09671220000001,9.379206
"Radolfzell, Baden-Württemberg","78315 Radolfzell, Germany",47.745237,8.9669098
"Hilpoltstein, Bayern","91161 Hilpoltstein, Germany",49.1891243,11.1885756
"Newel, Rheinland-Pfalz","Newel, Germany",49.8135555,6.5843531
"Esslingen , Baden-Württemberg","Esslingen, Germany",48.742178,9.3144229
"Wolnzach, Bayern","85283 Wolnzach, Germany",48.6036927,11.62459
"Binsfeld, Rheinland-Pfalz","Binsfeld, Germany",49.9647032,6.7080025
"Göritz, Brandenburg","17291 Göritz, Germany",53.4059651,13.9119629
"Schnaittach, Bayern","Schnaittach, Germany",49.5574631,11.3382201
"Wesselburen, Schleswig-Holstein","25764 Wesselburen, Germany",54.21050349999999,8.925930400000002
"Hutthurm, Bayern","94116 Hutthurm, Germany",48.671854,13.4718252
"Burgrieden, Baden-Württemberg","Burgrieden, Germany",48.2382735,9.934357499999999
"Linden, Bochum, Nordrhein-Westfalen","Bochum-Linden, Bochum, Germany",51.42482159999999,7.170300000000001
"Halbe, Baden-Württemberg","Baden-Württemberg, Germany",48.6616037,9.3501336
"Werdohl, Nordrhein-Westfalen","58791 Werdohl, Germany",51.2573883,7.7706271
"Taufkirchen, Bayern","Taufkirchen, Germany",48.0500225,11.6166508
"Bad Lippspringe, Nordrhein-Westfalen","Bad Lippspringe, Germany",51.7837494,8.8159083
"Wingerode, Thüringen","Wingerode, Germany",51.3898987,10.2406908
"Penzing, Bayern","86929 Penzing, Germany",48.075855,10.9275787
"Weißenfels , Sachsen-Anhalt","Weißenfels, Germany",51.1987896,11.9668979
"Bergen auf Rügen, Mecklenburg-Vorpommern","Bergen auf Rügen, Germany",54.4151606,13.4258341
"Lunden, Schleswig-Holstein","25774 Lunden, Germany",54.3280598,9.0229284
"Freilassing , Bayern","83395 Freilassing, Germany",47.84199820000001,12.9728226
"Schimberg, Thüringen","37308 Schimberg, Germany",51.2576702,10.164916
"Leuna, Sachsen-Anhalt","Leuna, Germany",51.3232659,12.0242284
"Berlin-Buch, Berlin","Buch, Berlin, Germany",52.64140099999999,13.496539
"Berlin - Prenzlauer Berg, Berlin","Prenzlauer Berg, Berlin, Germany",52.5391787,13.4242073
"Filsum, Niedersachsen","Filsum, Germany",53.242192,7.6280737
"Oberhausen-Rheinhausen, Baden-Württemberg","Oberhausen-Rheinhausen, Germany",49.259701,8.4850133
"Bad Berka, Thüringen","Bad Berka, Germany",50.8982547,11.281641
"Felm, Schleswig-Holstein","Felm, Germany",54.4099817,10.0578061
"Koblenz, Rheinland-Pfalz","Koblenz, Germany",50.3569429,7.5889959
"Assamstadt, Baden-Württemberg","97959 Assamstadt, Germany",49.4272279,9.6892005
"Freiburg im Breisgau, Baden-Württemberg","Freiburg im Breisgau, Germany",47.9990077,7.842104299999999
"Berlin-Mahrzahn, Berlin","Marzahn, Berlin, Germany",52.5446501,13.5646433
"Rellingen, Schleswig-Holstein","Rellingen, Germany",53.6509015,9.8338808
"Blekendorf, Schleswig-Holstein","24327 Blekendorf, Germany",54.2762588,10.6505627
"Schulzendorf bei Eichenwade, Brandenburg","Schulzendorfer Str., 15732 Eichwalde, Germany",52.370831,13.6103498
"Hessisch Lichtenau, Hessen","37235 Hessisch Lichtenau, Germany",51.1982109,9.719786599999999
"Neuhof, Hessen","36119 Neuhof, Germany",50.4556209,9.6116571
"Schmallenberg, Nordrhein-Westfalen","57392 Schmallenberg, Germany",51.1526332,8.290790099999999
"Jever, Niedersachsen","26441 Jever, Germany",53.57557869999999,7.9002789
"Eschwege, Hessen","37269 Eschwege, Germany",51.1876662,10.0397725
"Emmendingen, Baden-Württemberg","79312 Emmendingen, Germany",48.1216285,7.8514309
"Bad Belzig, Brandenburg","14806 Bad Belzig, Germany",52.14272649999999,12.5951797
"Pöhl, Sachsen","Pöhl, Germany",50.5580136,12.1741815
"Hoyerswerda, Sachsen","Hoyerswerda, Germany",51.4388605,14.2536419
"Groß Lüsewitz, Mecklenburg-Vorpommern","Groß Lüsewitz, 18190 Sanitz, Germany",54.070964,12.3388677
"Hüffenhardt, Baden-Württemberg","74928 Hüffenhardt, Germany",49.2905027,9.0817704
"Ense, Nordrhein-Westfalen","59469 Ense, Germany",51.5078471,7.9683377
"Seelow, Brandenburg","Seelow, Germany",52.5315702,14.3798314
"Stralsund , Mecklenburg-Vorpommern","Stralsund, Germany",54.30906539999999,13.0770347
"Elsdorf, Nordrhein-Westfalen","50189 Elsdorf, Germany",50.9392493,6.5635008
"Berlin-Mitte, Berlin","Mitte, Berlin, Germany",52.5372897,13.3602742
"Bernsdorf, Sachsen","Bernsdorf, Germany",51.3760276,14.0671248
"Moormerland, Niedersachsen","26802 Moormerland, Germany",53.30760660000001,7.4800141
"Schlotheim, Thüringen","Schlotheim, Nottertal-Heilinger Heights, Germany",51.244929,10.659656
"Schuttertal, Baden-Württemberg","77978 Schuttertal, Germany",48.2473215,7.9540767
"Sponholz, Mecklenburg-Vorpommern","Sponholz, Germany",53.552829,13.3668767
"Laußnitz, Sachsen","Laußnitz, Germany",51.2471038,13.8779912
"Wiesbaden, Hessen","Wiesbaden, Germany",50.0782184,8.239760799999999
"Maintal, Hessen","63477 Maintal, Germany",50.14720579999999,8.824969099999999
"Calw, Baden-Württemberg","75365 Calw, Germany",48.7126752,8.7425205
"Burg auf Fehmarn, Schleswig-Holstein","Burg auf Fehmarn, 23769 Fehmarn, Germany",54.4392933,11.1952637
"Nahe, Schleswig-Holstein","Nahe, Germany",53.7936388,10.1356739
"Sindelfingen , Baden-Württemberg","Sindelfingen, Germany",48.7074558,9.0044053
"Alsdorf, Nordrhein-Westfalen","52477 Alsdorf, Germany",50.87158849999999,6.164839199999999
"Unterensingen, Baden-Württemberg","Unterensingen, Germany",48.6572541,9.3557253
"Birkenfeld, Rheinland-Pfalz","55765 Birkenfeld, Germany",49.6474625,7.1650865
"Breitenthal, Bayern","86488 Breitenthal, Germany",48.23764449999999,10.2943302
"Schwarzenbach am Wald, Bayern","95131 Schwarzenbach am Wald, Germany",50.2840089,11.6228546
"Salzhemmendorf, Niedersachsen","31020 Salzhemmendorf, Germany",52.0664627,9.586495200000002
"Bad Abbach, Bayern","93077 Bad Abbach, Germany",48.9373377,12.0462593
"Lübben im Spreewald, Brandenburg","15907 Lübben, Germany",51.9410767,13.8911712
"Egolsheim, Ludwigsburg, Baden-Württemberg","Eglosheim, 71634 Ludwigsburg, Germany",48.906568,9.170829999999999
"Lugau im Erzgebirge, Sachsen","Lugau, Germany",50.73984650000001,12.7465523
"Garching, Bayern","85748 Garching, Germany",48.2488721,11.6532477
"Mauerstetten, Bayern","87665 Mauerstetten, Germany",47.8923235,10.6699726
"Schweitenkirchen, Bayern","85301 Schweitenkirchen, Germany",48.5052656,11.6060567
"Garmisch- Partenkirchen, Bayern","82467 Garmisch-Partenkirchen, Germany",47.4919023,11.0947806
"Bad Marienberg, Rheinland-Pfalz","56470 Bad Marienberg, Germany",50.6529429,7.946190999999999
"Harthof, München, Bayern","Harthof, 80937 München, Germany",48.20507449999999,11.569138
"Forbach, Baden-Württemberg","76596 Forbach, Germany",48.680884,8.3596427
"Osterburg, Sachsen-Anhalt","39606 Osterburg, Germany",52.7890715,11.7223312
"Bad Langensalza, Thüringen","99947 Bad Langensalza, Germany",51.10931590000001,10.6445189
"Forstfeld, Kassel, Hessen","Forstfeld, Kassel, Germany",51.2920436,9.5396777
"Achim, Niedersachsen","Achim, Germany",53.0092,9.0510401
"Bruchmühlbach-Miesau, Rheinland-Pfalz","66892 Bruchmühlbach-Miesau, Germany",49.3839906,7.4471353
"Neuenhagen, Brandenburg","Neuenhagen, Germany",52.5254787,13.69619
"Prisdorf, Schleswig-Holstein","Prisdorf, Germany",53.677953,9.763663
"Dogern, Baden-Württemberg","79804 Dogern, Germany",47.6075565,8.166121799999999
"Schöneberg, Berlin, Berlin","Schöneberg, Berlin, Germany",52.4898502,13.3532376
"Dinkelsbühl, Bayern","91550 Dinkelsbühl, Germany",49.0670187,10.3259395
"Nörvenich, Nordrhein-Westfalen","52388 Nörvenich, Germany",50.8066888,6.6402649
"Bockenem, Niedersachsen","Bockenem, Germany",52.0099516,10.1332768
"Annweiler am Trifels, Rheinland-Pfalz","Annweiler, Germany",49.2062599,7.972605300000001
"Warmensteinach, Bayern","Warmensteinach, Germany",49.9946518,11.7782413
"Prenzlau , Brandenburg","17291 Prenzlau, Germany",53.3173433,13.8633409
"Weißenfels, Sachsen-Anhalt","Weißenfels, Germany",51.1987896,11.9668979
"Lauta, Sachsen","Lauta, Germany",51.4568295,14.1008615
"Barchfeld, Thüringen","Barchfeld, Germany",50.8007475,10.3036866
"Hetlingen, Schleswig-Holstein","Hetlingen, Germany",53.6082912,9.6341816
"Lappersdorf, Bayern","Lappersdorf, Germany",49.0487011,12.0893467
"Uetze, Niedersachsen","31311 Uetze, Germany",52.4648432,10.2034802
"Bad Lobenstein, Thüringen","Bad Lobenstein, Germany",50.45222829999999,11.6392997
"Blomberg, Nordrhein-Westfalen","32825 Blomberg, Germany",51.9412112,9.0985749
"Wremen, Niedersachsen","Wremen, 27638 Wurster Nordseeküste, Germany",53.64796260000001,8.509085599999999
"Rinteln, Niedersachsen","31737 Rinteln, Germany",52.2020461,9.0759703
"Kelkheim, Hessen","Kelkheim, Germany",50.13489000000001,8.45121
"Geilenkirchen, Nordrhein-Westfalen","52511 Geilenkirchen, Germany",50.967168,6.117458399999999
"Laboe, Schleswig-Holstein","Laboe, Germany",54.4022362,10.2255695
"Bad Münstereifel, Nordrhein-Westfalen","53902 Bad Münstereifel, Germany",50.5576854,6.7612985
"Neustrelitz, Mecklenburg-Vorpommern","Neustrelitz, Germany",53.3601147,13.0730197
"Reichertshofen, Bayern","85084 Reichertshofen, Germany",48.6570298,11.4678498
"Niederzier, Nordrhein-Westfalen","52382 Niederzier, Germany",50.8766134,6.470278
"Biedenkopf, Hessen","35216 Biedenkopf, Germany",50.9121507,8.5301232
"Verden, Niedersachsen","27283 Verden, Germany",52.924648,9.2280756
"Hohenkichen, Mecklenburg-Vorpommern","Hohenkirchen, Germany",53.9165978,11.3070943
"Gohlis, Leipzig, Sachsen","Gohlis, Leipzig, Germany",51.364498,12.3678559
"Kleinlangheim , Bayern","97355 Kleinlangheim, Germany",49.7745213,10.2830489
"Lindenau, Brandenburg","01945 Lindenau, Germany",51.40086640000001,13.7232368
"Bad Schlema, Sachsen","Aue-Bad Schlema, Germany",50.5863723,12.7016117
"Besigheim, Baden-Württemberg","Besigheim, Germany",48.9988335,9.148394399999999
"Wermsdorf, Sachsen","Wermsdorf, Germany",51.2803708,12.940642
"Bergkamen, Nordrhein-Westfalen","59192 Bergkamen, Germany",51.6158082,7.6429742
"Oedt, Grefrath , Nordrhein-Westfalen","Oedt, 47929 Grefrath, Germany",51.3244564,6.3787876
"Haldensleben, Sachsen-Anhalt","Haldensleben, Germany",52.2827293,11.4170506
"Horn-Bad Meinberg, Nordrhein-Westfalen","32805 Horn-Bad Meinberg, Germany",51.8751511,8.9481431
"Dülmen, Nordrhein-Westfalen","48249 Dülmen, Germany",51.830355,7.279413399999999
"Stolpen, Sachsen","Stolpen, Germany",51.0476337,14.07632
"Rotenburg an der Fulda, Hessen","36199 Rotenburg an der Fulda, Germany",50.9995571,9.7309388
"Muhr am See, Bayern","Muhr am See, Germany",49.1554812,10.7112226
"Halbe, Brandenburg","Halbe, Germany",52.1099813,13.6943727
"Oststeinbek, Hamburg","22113 Oststeinbek, Germany",53.5422138,10.1699453
"Plön, Schleswig-Holstein","Plön, Germany",54.16133019999999,10.4259498
"Dresden-Übigau, Sachsen","Übigau, Dresden, Germany",51.0709447,13.693934
"Leezen, Mecklenburg-Vorpommern","Leezen, Germany",53.6619494,11.4996574
"Harlaching, München, Bayern","Untergiesing-Harlaching, Munich, Germany",48.1004042,11.5663776
"Effelder-Rauenstein, Thüringen","Effelder-Rauenstein, 96528 Frankenblick, Germany",50.3914316,11.064465
"Nordstemmen, Niedersachsen","31171 Nordstemmen, Germany",52.16363200000001,9.7882818
"Friedeburg, Niedersachsen","26446 Friedeburg, Germany",53.45442,7.8320346
"Hilchenbach, Nordrhein-Westfalen","57271 Hilchenbach, Germany",50.9967407,8.1111636
"Neustadt an der Orla, Thüringen","07806 Neustadt an der Orla, Germany",50.7367065,11.7538634
"Neufahrn, Bayern","Neufahrn bei Freising, Germany",48.3149823,11.6617978
"Naunhof, Sachsen","Naunhof, Germany",51.2787215,12.591803
"Mühlheim am Main, Hessen","Mühlheim am Main, Germany",50.12021679999999,8.8382646
"Wertingen, Bayern","86637 Wertingen, Germany",48.5617904,10.6791623
"Gröditz, Sachsen","Gröditz, Germany",51.4110818,13.4471558
"Leuben, Dresden, Sachsen","Leuben, Dresden, Germany",51.01008359999999,13.8306906
"Chemnitz, Sachsen","Chemnitz, Germany",50.8282222,12.9208547
"Reichenbach (Vogtland), Sachsen","Reichenbach im Vogtland, Germany",50.6175423,12.2990016
"Ismaning , Bayern","85737 Ismaning, Germany",48.2258973,11.6742738
"Sachsen bei Ansbach, Bayern","Sachsen bei Ansbach, Germany",49.2886011,10.6614458
"Untersteinach, Bayern","Untersteinach, Germany",50.13281079999999,11.5258367
"Wriezen, Brandenburg","Wriezen, Germany",52.7197233,14.133275
"Schönefeld, Brandenburg","12529 Schönefeld, Germany",52.3923169,13.5170006
"Springe, Niedersachsen","31832 Springe, Germany",52.21079049999999,9.5531458
"Rethem, Niedersachsen","27336 Rethem, Germany",52.7851387,9.378928799999999
"Barsinghausen, Niedersachsen","30890 Barsinghausen, Germany",52.30207370000001,9.4693993
"Wenden, Nordrhein-Westfalen","57482 Wenden, Germany",50.9716418,7.8665433
"Saal, Bayern","93342 Saal an der Donau, Germany",48.8594759,11.9176421
"Euskirchen, Nordrhein-Westfalen","Euskirchen, Germany",50.6574392,6.7899945
"Lichtenfels, Bayern","96215 Lichtenfels, Germany",50.1435387,11.0555414
"Kloster Schäftlarn, Bayern","Kloster Schäftlarn, 82067 Schäftlarn, Germany",47.9779324,11.4677728
"Üttfeld, Rheinland-Pfalz","54619 Üttfeld, Germany",50.1334296,6.2567808
"Langenfeld, Nordrhein-Westfalen","40764 Langenfeld, Germany",51.1191898,6.951266299999999
"Karlstadt, Bayern","97753 Karlstadt am Main, Germany",49.9604785,9.7734603
"München, Baden-Württemberg","Munich, Germany",48.1351253,11.5819806
"Altenburg, Thüringen","Altenburg, Germany",50.9931202,12.4366572
"Selb, Bayern","95100 Selb, Germany",50.171311,12.1339323
"Oberkrämer, Brandenburg","Marwitz, Germany",52.6967066,13.105511
"Nienhagen, Niedersachsen","29336 Nienhagen, Germany",52.5562818,10.1044423
"Bad Salzuflen, Nordrhein-Westfalen","Bad Salzuflen, Germany",52.0765185,8.755621999999999
"Wildeshausen, Niedersachsen","27793 Wildeshausen, Germany",52.891579,8.4258585
"Leubnitz-Neuostra, Dresden, Sachsen","Leubnitz-Neuostra, Dresden, Germany",51.01402299999999,13.7698131
"Nußdorf am Inn, Bayern","83131 Nußdorf am Inn, Germany",47.7428876,12.1565803
"Erfstadt, Nordrhein-Westfalen","Erftstadt, 50374 Erftstadt, Germany",50.7948075,6.7774607
"Würzburg, Bayern","Würzburg, Germany",49.79130439999999,9.9533548
"Lauenburg an der Elbe, Schleswig-Holstein","21481 Lauenburg, Germany",53.3762523,10.5496697
"Börßum, Niedersachsen","38312 Börßum, Germany",52.0671767,10.5783385
"Rietberg, Nordrhein-Westfalen","33397 County of Rietberg, Germany",51.8167441,8.434179000000002
"Geschwenda, Thüringen","Geschwenda, 99331 Geratal, Germany",50.7309612,10.8220667
"Wesel, Niedersachsen","Wesel, 21274 Undeloh, Germany",53.2282664,9.9218468
"Gronau, Nordrhein-Westfalen","48599 Gronau, Germany",52.1841199,7.028936099999999
"Nordhorn, Niedersachsen","Nordhorn, Germany",52.4407445,7.0648882
"Unna, Nordrhein-Westfalen","Unna, Germany",51.5410778,7.687836
"Mügeln, Sachsen","Mügeln, Germany",51.23641869999999,13.045206
"Tharandt, Sachsen","Tharandt, Germany",50.9866531,13.5782358
"Wernigerode, Sachsen-Anhalt","Wernigerode, Germany",51.8368113,10.7844266
"Forst (Lausitz), Brandenburg","03149 Forst, Germany",51.7445739,14.6451394
"Niederkrüchten, Nordrhein-Westfalen","41372 Niederkrüchten, Germany",51.1988311,6.2192454
"Soest, Nordrhein-Westfalen","59494 Soest, Germany",51.5714188,8.110529099999999
"Muldestausee, Sachsen-Anhalt","Muldestausee, Germany",51.6576264,12.4369952
"Kandel, Rheinland-Pfalz","76870 Kandel, Germany",49.0808027,8.1943039
"Eichstedt, Sachsen-Anhalt","Eichstedt, Germany",52.67202649999999,11.8611364
"Blindheim, Bayern","89434 Blindheim, Germany",48.6318598,10.61978
"Mülsen Sankt Jacob, Sachsen","Mülsen St. Jacob, 08132 Mülsen, Germany",50.7326389,12.5805507
"Hofheim, Hessen","Hofheim, Germany",50.0841829,8.4432295
"Brieskow-Finkenheerd, Brandenburg","15295 Brieskow-Finkenheerd, Germany",52.2525822,14.570954
"Weil am Rhein, Otterbach, Baden-Württemberg","Otterbach, 79576 Weil am Rhein, Germany",47.5831872,7.6060868
"Altenburschla, Wanfried, Hessen","Altenburschla, 37281 Wanfried, Germany",51.1500485,10.1778997
"Niestetal, Hessen","34266 Niestetal, Germany",51.3079896,9.5768265
"Buch, Berlin, Berlin","Buch, Berlin, Germany",52.64140099999999,13.496539
"Freyburg, Sachsen-Anhalt","Freyburg, Germany",51.2124025,11.7699694
"Neukirch/Lausitz, Sachsen","Neukirch/Lausitz, Germany",51.0947498,14.3069437
"Höchberg, Bayern","Höchberg, Germany",49.7821907,9.8808945
"Reichertshausen, Bayern","85293 Reichertshausen, Germany",48.4661958,11.5077709
"Villingen-Schwellingen, Baden-Württemberg","Villingen-Schwenningen, Germany",48.0659038,8.4803695
"Oldendorf, Niedersachsen","21726 Oldendorf, Germany",53.5899076,9.2521968
"Johanngeorgenstadt, Sachsen","Johanngeorgenstadt, Germany",50.4360485,12.708193
"Schwedeneck, Schleswig-Holstein","24229 Schwedeneck, Germany",54.4699235,10.0746178
"Gummersbach, Nordrhein-Westfalen","Gummersbach, Germany",51.0275951,7.563750499999999
"Saalfeld/Saale, Thüringen","Saalfeld, Germany",50.6492736,11.3661502
"Parchim, Mecklenburg-Vorpommern","Parchim, Germany",53.4250382,11.8478394
"Niederstedem, Rheinland-Pfalz","54634 Niederstedem, Germany",49.93053039999999,6.497427200000001
"Wietmarschen, Niedersachsen","49835 Wietmarschen, Germany",52.51754,7.134325800000001
"Spandau, Berlin","Spandau, Berlin, Germany",52.5351876,13.2002964
"Danneberg, Niedersachsen","Dannenberg, Grasberg, Germany",53.1502661,8.989994399999999
"Frankfurt, Hessen","Frankfurt, Germany",50.1109221,8.6821267
"Deizisau, Baden-Württemberg","Deizisau, Germany",48.7119414,9.3870758
"Upgant-Schott, Niedersachsen","26529 Upgant-Schott, Germany",53.51435739999999,7.2672822
"Stetzsch, Dresden, Sachsen","Stetzsch, 01157 Dresden, Germany",51.08015109999999,13.6612564
"Wurmlingen, Baden-Württemberg","78573 Wurmlingen, Germany",48.00338060000001,8.7765863
"Krautheim, Baden-Württemberg","74238 Krautheim, Germany",49.3826557,9.6343905
"Lübbecke, Nordrhein-Westfalen","32312 Lübbecke, Germany",52.3097404,8.6223098
"Rudersberg, Baden-Württemberg","73635 Rudersberg, Germany",48.88474979999999,9.5303744
"Loxstedt, Niedersachsen","27612 Loxstedt, Germany",53.4724634,8.647307999999999
"Großräschen, Brandenburg","Großräschen, Germany",51.5907452,14.0085563
"Neustadt am Rübenberge, Niedersachsen","31535 Neustadt am Rübenberge, Germany",52.5035855,9.4518304
"Sielenbach, Bayern","86577 Sielenbach, Germany",48.4027167,11.1654651
"Sonneberg, Thüringen","Sonneberg, Germany",50.3601821,11.1709899
"Schönebeck, Sachsen-Anhalt","Schönebeck, Germany",52.0091435,11.7470481
"Bodenwöhr, Bayern","Bodenwöhr, Germany",49.2713068,12.3064346
"Ebersbach, Sachsen","Ebersbach, Germany",51.0040105,14.5905347
"Eltmann, Bayern","Eltmann, Germany",49.9673521,10.6635056
"Möllenhagen, Mecklenburg-Vorpommern","Möllenhagen, Germany",53.5210303,12.9201958
"Königs-Wusterhausen, Brandenburg","Königs Wusterhausen, Germany",52.2958906,13.6228382
"Berlin-Adlershof, Berlin","Adlershof, Berlin, Germany",52.434879,13.5421149
"Lehnin, Brandenburg","Lehnin, 14797 Kloster Lehnin, Germany",52.3082956,12.7444476
"Haar, Bayern","85540 Haar, Germany",48.1103758,11.7321151
"Neustadt, Thüringen","Neustadt am Rennsteig, Großbreitenbach, Germany",50.5830231,10.9336362
"Clenze, Niedersachsen","29459 Clenze, Germany",52.9357195,10.954878
"Gifhorn, Schleswig-Holstein","38518 Gifhorn, Germany",52.4809091,10.5507829
"Leubnitz, Dresden, Sachsen","Leubnitz-Neuostra, Dresden, Germany",51.01402299999999,13.7698131
"Marne, Schleswig-Holstein","25709 Marne, Germany",53.9527645,9.0106605
"Tettnang, Baden-Württemberg","88069 Tettnang, Germany",47.6681722,9.5916036
"Kißlegg, Baden-Württemberg","88353 Kißlegg, Germany",47.789715,9.885795199999999
"Freising, Bayern","Freising, Germany",48.401454,11.7413524
"Trittau, Schleswig-Holstein","22946 Trittau, Germany",53.61115119999999,10.4028748
"Stade, Niedersachsen","Stade, Germany",53.59286179999999,9.4709494
"Röttenbach, Bayern","Röttenbach, Germany",49.668294,10.9244766
"Rabenau, Hessen","35466 Rabenau, Germany",50.6747105,8.8658161
"Adlershof, Berlin, Berlin","Adlershof, Berlin, Germany",52.434879,13.5421149
"Jena, Thüringen","Jena, Germany",50.927054,11.5892372
"Trassenheide, Mecklenburg-Vorpommern","Trassenheide, Germany",54.0857873,13.8647219
"Neustadt an der Waldnaab, Bayern","Neustadt an der Waldnaab, Germany",49.7320956,12.1781271
"Schwindegg, Bayern","84419 Schwindegg, Germany",48.27171070000001,12.2587988
"Diepholz, Niedersachsen","49356 Diepholz, Germany",52.6056456,8.3707878
"Blasewitz, Dresden, Sachsen","Blasewitz, Dresden, Germany",51.042873,13.7953974
"Buchholz (Nordheide), Niedersachsen","21244 Buchholz in der Nordheide, Germany",53.3176971,9.8694845
"Bad Lauchstädt, Sachsen-Anhalt","06246 Bad Lauchstädt, Germany",51.3873453,11.8671497
"Rottenburg am Neckar, Baden-Württemberg","Rottenburg, Germany",48.4791318,8.9409486
"Lübeck , Schleswig-Holstein","Lübeck, Germany",53.8654673,10.6865593
"Winnigstedt, Niedersachsen","38170 Winnigstedt, Germany",52.06526350000001,10.7771189
"Semlow, Mecklenburg-Vorpommern","Semlow, Germany",54.1821776,12.656816
"Hildburghausen, Thüringen","98646 Hildburghausen, Germany",50.4263293,10.7312097
"Tännesberg, Bayern","92723 Tännesberg, Germany",49.53159900000001,12.3262946
"Söhlde, Niedersachsen","Söhlde, Germany",52.1890405,10.2322446
"Leinefeld-Worbis, Thüringen","Leinefelde-Worbis, Germany",51.4071434,10.3305838
"Marburg, Hessen","Marburg, Germany",50.8018843,8.7657677
"Wirdum, Niedersachsen","26529 Wirdum, Germany",53.4765487,7.205809599999999
"Ellhofen, Baden-Württemberg","Ellhofen, Germany",49.1459677,9.3206802
"Lindenau, Leipzig, Sachsen","Lindenau, Leipzig, Germany",51.33264029999999,12.3296974
"Dorfen, Bayern","84405 Dorfen, Germany",48.27368020000001,12.1537928
"Baden Baden, Baden-Württemberg","Baden-Baden, Germany",48.76564,8.228524199999999
"Fürth, Hessen","Fürth, Germany",49.6499876,8.7828476
"Greifswald, Mecklenburg-Vorpommern","Greifswald, Germany",54.08654629999999,13.3923414
"Schlüchtern, Hessen","36381 Schlüchtern, Germany",50.3493544,9.5255493
"Siedenburg, Niedersachsen","27254 Siedenburg, Germany",52.6911043,8.9421132
"Neustadt, Bayern","91413 Neustadt an der Aisch, Germany",49.5795445,10.6139437
"Untersteinbach, Bayern","Untersteinbach, 91154 Roth, Germany",49.2098319,11.0790123
"Wolfenbüttel, Niedersachsen","Wolfenbüttel, Germany",52.160443,10.5342445
"Lichtenfels/Weismain, Bayern","96260 Weismain, Germany",50.08637599999999,11.242007
"Spantekow, Mecklenburg-Vorpommern","Spantekow, Germany",53.7790253,13.5167314
"Pirmasens , Rheinland-Pfalz","Pirmasens, Germany",49.20155500000001,7.600216100000001
"Kempen, Nordrhein-Westfalen","47906 Kempen, Germany",51.36499420000001,6.4205309
"Dransfeld, Niedersachsen","37127 Dransfeld, Germany",51.49960400000001,9.7619083
"Bogen, Bayern","Bogen, Germany",48.9094138,12.6922998
"Bodenmais, Bayern","94249 Bodenmais, Germany",49.0701803,13.1020292
"Wernberg-Köblitz, Bayern","92533 Wernberg-Köblitz, Germany",49.5329242,12.1530813
"Espelkamp, Nordrhein-Westfalen","32339 Espelkamp, Germany",52.3814709,8.620970699999999
"Bentzin, Mecklenburg-Vorpommern","Bentzin, Germany",53.94650069999999,13.2748543
"Müllrose, Brandenburg","Müllrose, Germany",52.2459307,14.4169522
"Baruth, Brandenburg","Baruth/Mark, Germany",52.033478,13.5042115
"Sülfeld, Schleswig-Holstein","Sülfeld, Germany",53.8004208,10.2293724
"Neuenbürg, Baden-Württemberg","75305 Neuenbürg, Germany",48.8465473,8.5885482
"Altefähr, Mecklenburg-Vorpommern","18573 Altefähr, Germany",54.3307403,13.1264541
"Lage, Nordrhein-Westfalen","32791 Lage, Germany",51.9906003,8.789587299999999
"Pinneberg, Schleswig-Holstein","25421 Pinneberg, Germany",53.6545225,9.7938212
"Kevelaer, Nordrhein-Westfalen","Kevelaer, Germany",51.581349,6.245757999999999
"Thale (Harz), Sachsen-Anhalt","Thale, Germany",51.7474415,11.0413686
"Berlin-Falkenberg, Berlin","Falkenberg, Berlin, Germany",52.578193,13.5476805
"Breitenbrunn/Erzgebirge, Sachsen","Breitenbrunn, Germany",50.4765374,12.7603045
"Gingst, Mecklenburg-Vorpommern","18569 Gingst, Germany",54.4567741,13.2562103
"Pleidelsheim, Baden-Württemberg","Pleidelsheim, Germany",48.9582103,9.202379299999999
"Bad Gottleuba, Sachsen","Bad Gottleuba, 01816 Bad Gottleuba-Berggießhübel, Germany",50.845956,13.9442241
"Plöwen, Mecklenburg-Vorpommern","17321 Plöwen, Germany",53.4635995,14.2636497
"Hartha, Sachsen","Hartha, Germany",51.0963335,12.9725862
"Frauendorf, Brandenburg","Frauendorf, Germany",51.4191884,13.7691522
"Weida, Thüringen","07570 Weida, Germany",50.7753192,12.0560529
"Neulingen, Baden-Württemberg","Neulingen, Germany",48.9678024,8.725007399999999
"Vorra, Bayern","91247 Vorra, Germany",49.5575603,11.4906607
"Doberlug-Kirchheim, Brandenburg","Doberlug-Kirchhain, Germany",51.6471716,13.4956659
"Wellheim, Bayern","91809 Wellheim, Germany",48.81765739999999,11.083487
"Schönberg, Schleswig-Holstein","24217 Schönberg, Germany",54.3947047,10.3721441
"Pankow, Berlin","Pankow, Berlin, Germany",52.5928787,13.4317001
"Friedrichsthal, Saarland","66299 Friedrichsthal, Germany",49.32702,7.0946606
"Hasselfelde, Sachsen-Anhalt","Hasselfelde, Germany",51.69179829999999,10.8550817
"Rodewisch, Sachsen","Rodewisch, Germany",50.53087300000001,12.4048621
"Ehringshausen, Hessen","35630 Ehringshausen, Germany",50.6020129,8.381268
"Verden (Aller), Niedersachsen","27283 Verden, Germany",52.924648,9.2280756
"Bad Oeynhausen, Nordrhein-Westfalen","Bad Oeynhausen, Germany",52.2084623,8.8009706
"Barth, Mecklenburg-Vorpommern","Barth, Germany",54.3688034,12.7252485
"Bonn , Nordrhein-Westfalen","Bonn, Germany",50.73743,7.0982068
"Schirnding, Bayern","Schirnding, Germany",50.0780951,12.228463
"Kleve, Nordrhein-Westfalen","47533 Kleve, Germany",51.78672599999999,6.12954
"Teisnach, Bayern","94244 Teisnach, Germany",49.0364551,12.9950274
"Lahr (Schwarzwald), Baden-Württemberg","77933 Lahr, Germany",48.33915,7.8781487
"Loitzendorf, Bayern","94359 Loitzendorf, Germany",49.08520679999999,12.654512
"Lauchhammer, Brandenburg","01979 Lauchhammer, Germany",51.4977789,13.7730322
"Weisendorf, Bayern","Weisendorf, Germany",49.6226327,10.8267817
"Schäbisch Hall, Baden-Württemberg","74523 Schwäbisch Hall, Germany",49.1124645,9.7372649
"Willmars, Bayern","97647 Willmars, Germany",50.5010161,10.2421495
"Söhlde , Niedersachsen","Söhlde, Germany",52.1890405,10.2322446
"Lennestadt, Nordrhein-Westfalen","57368 Lennestadt, Germany",51.1037833,8.0733266
"Straubing, Bayern","94315 Straubing, Germany",48.8777333,12.5801538
"Wedel, Schleswig-Holstein","Wedel, Germany",53.58238129999999,9.7137465
"Hünfeld, Hessen","36088 Hünfeld, Germany",50.6726672,9.769045499999999
"Barnstorf, Niedersachsen","49406 Barnstorf, Germany",52.7064102,8.4976082
"Itzehoe, Schleswig-Holstein","Itzehoe, Germany",53.9317752,9.5051475
"Leer (Ostfriesland), Niedersachsen","26789 Leer, Germany",53.235657,7.4679018
"Mömbris, Bayern","Mömbris, Germany",50.068571,9.1570748
"Berlin-Köpenick, Berlin","Köpenick, Berlin, Germany",52.44260689999999,13.5822741
"Abtsgemünd, Baden-Württemberg","73453 Abtsgmünd, Germany",48.8910782,10.001692
"Vlotho, Nordrhein-Westfalen","32602 Vlotho, Germany",52.1605973,8.8560945
"Aalen, Baden-Württemberg","Aalen, Germany",48.8366887,10.0971163
"Beelen, Nordrhein-Westfalen","48361 Beelen, Germany",51.9296777,8.1130748
"Senden, Nordrhein-Westfalen","48308 Senden, Germany",51.8587626,7.482635699999999
"Neu-Olvenstedt, Magdeburg, Sachsen-Anhalt","Neu Olvenstedt, Magdeburg, Germany",52.1512599,11.5887943
"Tiefenort, Thüringen","Tiefenort, Bad Salzungen, Germany",50.84013729999999,10.1654235
"Speyer , Rheinland-Pfalz","67346 Speyer, Germany",49.3172765,8.441217199999999
"Lauf, Bayern","91207 Lauf an der Pegnitz, Germany",49.5110483,11.2780245
"Salzwedel , Sachsen-Anhalt","29410 Salzwedel, Germany",52.84965039999999,11.1514876
"Burscheid, Nordrhein-Westfalen","51399 Burscheid, Germany",51.085636,7.110593199999999
"Schöndorf, Brandenburg","Brandenburg, Germany",52.4125287,12.5316444
"Lauenau, Niedersachsen","31867 Lauenau, Germany",52.2748223,9.3691018
"Muggensturm, Baden-Württemberg","Muggensturm, Germany",48.8696412,8.2767765
"Pößneck, Thüringen","07381 Pößneck, Germany",50.6968663,11.5968389
"Schneverdingen, Niedersachsen","29640 Schneverdingen, Germany",53.1162319,9.792343599999999
"Prien am Chiemsee, Bayern","83209 Prien am Chiemsee, Germany",47.8561815,12.3490983
"Oschersleben/Bode, Sachsen-Anhalt","Oschersleben, Germany",52.0271323,11.22858
"Malente, Schleswig-Holstein","23714 Malente, Germany",54.1736324,10.5589233
"Langelsheim, Niedersachsen","38685 Langelsheim, Germany",51.9353018,10.3325966
"Dresden-Klotzsche, Sachsen","Klotzsche, Dresden, Germany",51.1154638,13.7464999
"Herbetingen, Baden-Württemberg","88518 Herbertingen, Germany",48.0613999,9.4296685
"Großschweidnitz, Sachsen","02708 Großschweidnitz, Germany",51.0743644,14.6472697
"Hilden, Nordrhein-Westfalen","Hilden, Germany",51.16785669999999,6.9352253
"Westoverledingen, Niedersachsen","Westoverledingen, Germany",53.1539867,7.442007500000001
"Eberswalde, Brandenburg","Eberswalde, Germany",52.83713299999999,13.7875871
"Löbtau, Dresden, Sachsen","Löbtau, Dresden, Germany",51.0422862,13.7001358
"Zschillichau, Sachsen","Zschillichau, 02694 Großdubrau, Germany",51.2518687,14.4880733
"Puchheim, Bayern","Puchheim, Germany",48.16322570000001,11.3421615
"Villigst, Nordrhein-Westfalen","Villigst, 58239 Schwerte, Germany",51.43298679999999,7.5946488
"Blaufelden, Baden-Württemberg","74572 Blaufelden, Germany",49.2981288,9.970427599999999
"Alpen, Nordrhein-Westfalen","46519 Alpen, Germany",51.5755955,6.5120144
"Büdingen, Hessen","63654 Büdingen, Germany",50.2862963,9.111383799999999
"Hohen Neuendorf bei Berlin, Brandenburg","Hohen Neuendorf, Germany",52.6720645,13.2786739
"Bed Belzig, Brandenburg","14806 Bad Belzig, Germany",52.14272649999999,12.5951797
"Halver, Nordrhein-Westfalen","58553 Halver, Germany",51.1886251,7.499215
"Gemünden am Main, Bayern","97737 Gemünden am Main, Germany",50.0494605,9.7059316
"Lüdenscheid, Nordrhein-Westfalen","Lüdenscheid, Germany",51.2191038,7.631259999999999
"Hockenheim, Baden-Württemberg","Hockenheim, Germany",49.31955199999999,8.5498581
"Schwalbach, Saarland","66773 Schwalbach, Germany",49.3056059,6.821890799999999
"Baunatal, Hessen","34225 Baunatal, Germany",51.2537283,9.4146
"Lokstedt, Hamburg, Hamburg","Lokstedt, Hamburg, Germany",53.5991339,9.9585294
"Bad Oldesloe, Schleswig-Holstein","23843 Bad Oldesloe, Germany",53.8076269,10.3822557
"Zeiskam, Rheinland-Pfalz","Zeiskam, Germany",49.23335429999999,8.2504751
"Bendorf, Rheinland-Pfalz","56170 Bendorf, Germany",50.4267625,7.571062799999999
"Bad Wildungen, Hessen","34537 Bad Wildungen, Germany",51.1178991,9.1219134
"Oer-Erkenschwick, Nordrhein-Westfalen","45739 Oer-Erkenschwick, Germany",51.6429599,7.2594914
"Kempten, Bayern","Kempten, Germany",47.7285699,10.3157835
"Hamburg , Hamburg","Hamburg, Germany",53.5510846,9.9936818
"Rheine , Nordrhein-Westfalen","Rheine, Germany",52.2815691,7.443409200000001
"Fürstenwalde an der Spree, Brandenburg","15517 Fürstenwalde, Germany",52.3680179,14.0594725
"Flensburg, Schleswig-Holstein","Flensburg, Germany",54.7937431,9.4469964
"Dossenheim, Baden-Württemberg","Dossenheim, Germany",49.4483389,8.673254
"Schildow, Brandenburg","Schildow, 16552 Mühlenbecker Land, Germany",52.64225649999999,13.3697036
"Dorsten, Nordrhein-Westfalen","Dorsten, Germany",51.6559681,6.964260599999999
"Morsbach, Nordrhein-Westfalen","51597 Morsbach, Germany",50.8665594,7.7267267
"Sonnewalde, Brandenburg","03249 Sonnewalde, Germany",51.6889023,13.6469677
"Jork, Niedersachsen","Jork, Germany",53.53219319999999,9.6838518
"Edingen-Neckarhausen, Baden-Württemberg","Edingen-Neckarhausen, Germany",49.4452916,8.609355899999999
"Frankental in der Pfalz, Rheinland-Pfalz","Frankenthal (Pfalz), 67227 Frankenthal, Germany",49.53770720000001,8.3560768
"Geising, Sachsen","Geising, Altenberg, Germany",50.7569369,13.7922939
"Bad Bevensen, Niedersachsen","29549 Bad Bevensen, Germany",53.0789507,10.5784051
"Gräfenroda, Thüringen","Gräfenroda, 99330 Geratal, Germany",50.74791339999999,10.8108145
"Weimar, Thüringen","Weimar, Germany",50.9794934,11.3235439
"Frankfurt (Main), Hessen","Frankfurt, Germany",50.1109221,8.6821267
"Dachsbach, Bayern","91462 Dachsbach, Germany",49.6380578,10.7078935
"Bad Sulza, Thüringen","Bad Sulza, Germany",51.087991,11.6285628
"Saarburg, Rheinland-Pfalz","Saarburg, Germany",49.60580479999999,6.556151
"Bad Hönningen, Rheinland-Pfalz","Bad Hönningen, Germany",50.5175662,7.3085333
"Rosenheim, Bayern","Rosenheim, Germany",47.8571272,12.1181047
"Rösrath, Nordrhein-Westfalen","51503 Rösrath, Germany",50.9044746,7.183495099999999
"Friedland, Niedersachsen","37133 Friedland, Germany",51.42109800000001,9.9121688
"Wismar, Mecklenburg-Vorpommern","Wismar, Germany",53.8879706,11.4621371
"Übach-Palenberg, Nordrhein-Westfalen","Übach, 52531 Übach-Palenberg, Germany",50.92577856839478,6.105834530094508
"Stadtilm, Thüringen","99326 Stadtilm, Germany",50.7753052,11.0809079
"Nikolassee, Berlin, Berlin","Nikolassee, Berlin, Germany",52.4340941,13.201018
"Marksuhl, Thüringen","Marksuhl, Germany",50.91287819999999,10.2044812
"Bockau, Sachsen","Bockau, Germany",50.54224610000001,12.6856926
"Konstanz, Baden-Württemberg","Konstanz, Germany",47.6779808,9.1736741
"Walldorf, Baden-Württemberg","Walldorf, Germany",49.3063689,8.6427693
"Fürstenfeldbruck , Bayern","82256 Fürstenfeldbruck, Germany",48.1739373,11.2430079
"Oberasbach, Bayern","Oberasbach, Germany",49.4324695,10.9712927
"Heidenau, Sachsen","Heidenau, Germany",50.9758426,13.8661223
"Trent, Mecklenburg-Vorpommern","Trent, Germany",54.5208938,13.2551337
"Aschersleben, Sachsen-Anhalt","Aschersleben, Germany",51.7591297,11.4619062
"Kempten im Allgäu, Bayern","Kempten, Germany",47.7285699,10.3157835
"Wittmund, Niedersachsen","26409 Wittmund, Germany",53.5783573,7.779684899999999
"Höringen, Rheinland-Pfalz","Höringen, Germany",49.55590240000001,7.7961307
"Artern an der Unstrut, Thüringen","06556 Artern, Germany",51.3673649,11.2954854
"Bad Teinach-Zavelstein, Baden-Württemberg","75385 Bad Teinach-Zavelstein, Germany",48.6941023,8.6887972
"Schwabmünchen, Bayern","86830 Schwabmünchen, Germany",48.1800343,10.7557069
"Köln , Nordrhein-Westfalen","Cologne, Germany",50.937531,6.9602786
"Ellefeld, Sachsen","Ellefeld, Germany",50.4853657,12.3860935
"Regensburg, Baden-Württemberg","Regensburg, Germany",49.0134297,12.1016236
"Baienfurt, Baden-Württemberg","88255 Baienfurt, Germany",47.82698329999999,9.6514758
"Dortmund, Nordrhein-Westfalen","Dortmund, Germany",51.5135872,7.465298100000001
"Peiting, Bayern","Peiting, Germany",47.7941166,10.9303033
"Steinen, Baden-Württemberg","79585 Steinen, Germany",47.64439540000001,7.737990299999999
"Berlin-Moabit, Berlin","Moabit, Berlin, Germany",52.53078290000001,13.3471759
"Weidenthal, Rheinland-Pfalz","67475 Weidenthal, Germany",49.4218294,7.9906187
"Hainburg, Hessen","Hainburg, Germany",50.0763954,8.9379086
"Mühlenbarbek, Kellinghusen, Schleswig-Holstein","25548 Mühlenbarbek, Germany",53.9578486,9.6671665
"Pulheim, Nordrhein-Westfalen","50259 Pulheim, Germany",50.9995815,6.807685299999999
"Bornheim, Nordrhein-Westfalen","53332 Bornheim, Germany",50.759586,6.9821412
"Benndorf, Sachsen-Anhalt","Benndorf, Germany",51.5706789,11.4896368
"Aspisheim, Rheinland-Pfalz","Aspisheim, Germany",49.9064863,7.9810978
"Hochheim, Hessen","Hochheim am Main, Germany",50.0147576,8.3558664
"Pfreimd, Bayern","92536 Pfreimd, Germany",49.48968370000001,12.1797928
"Bad Grund, Niedersachsen","37539 Bad Grund, Germany",51.8126708,10.2382509
"Stadtallendorf, Hessen","35260 Stadtallendorf, Germany",50.8218537,9.020215100000001
"Auerbach im Vogtland, Sachsen","Auerbach, Germany",50.5079692,12.3981373
"Wilhelmshaven, Niedersachsen","Wilhelmshaven, Germany",53.53234029999999,8.1068722
"Bonstetten, Bayern","Bonstetten, Germany",48.4399512,10.7101161
"Uetersen, Schleswig-Holstein","25436 Uetersen, Germany",53.6872441,9.6763338
"Hirschaid, Bayern","Hirschaid, Germany",49.8190535,10.992433
"Pfedelbach, Baden-Württemberg","74629 Pfedelbach, Germany",49.1783423,9.507019099999999
"Lütjenburg, Schleswig-Holstein","24321 Lütjenburg, Germany",54.29414149999999,10.5864414
"Karlsbad, Baden-Württemberg","76307 Karlsbad, Germany",48.9123375,8.5036882
"Welzheim, Baden-Württemberg","Welzheim, Germany",48.8744378,9.6318238
"Berglern, Bayern","85459 Berglern, Germany",48.3834613,11.9298961
"Steinberg-Deckenhardt, Saarland","Steinberg-Deckenhardt, 66649 Oberthal, Germany",49.5387212,7.118503899999999
"Teltow, Brandenburg","Teltow, Germany",52.3975008,13.2752586
"Kaarst, Nordrhein-Westfalen","41564 Kaarst, Germany",51.2241281,6.6172049
"Weißensee, Berlin, Berlin","Weissensee, Berlin, Germany",52.5538804,13.4675453
"Pfarrweisach, Bayern","96176 Pfarrweisach, Germany",50.1463611,10.7381314
"Wallgau, Bayern","82499 Wallgau, Germany",47.5213614,11.2817958
"Großkmehlen, Brandenburg","Großkmehlen, Germany",51.37854,13.7244811
"Haspe (Hagen), Nordrhein-Westfalen","Haspe, 58135 Hagen, Germany",51.34796780000001,7.4247042
"Mittelangeln, Schleswig-Holstein","24986 Mittelangeln, Germany",54.68014239999999,9.59935
"Neuburg, Bayern","86633 Neuburg an der Donau, Germany",48.7302674,11.1887693
"Egg, Bayern","Egg an der Günz, Germany",48.0865961,10.2835381
"Rangsdorf, Brandenburg","15834 Rangsdorf, Germany",52.2918732,13.4388453
"Oldenburg, Schleswig-Holstein","23758 Oldenburg in Holstein, Germany",54.2904694,10.8899227
"Forst/Lausitz, Brandenburg","03149 Forst, Germany",51.7445739,14.6451394
"Wolgast, Mecklenburg-Vorpommern","Wolgast, Germany",54.0496018,13.7665592
"Erbstorf, Niedersachsen","Erbstorf, 21365 Adendorf, Germany",53.2744624,10.4752955
"Bad Berleburg, Nordrhein-Westfalen","57319 Bad Berleburg, Germany",51.0515666,8.3926278
"Bennewitz, Sachsen","Bennewitz, Germany",51.3602445,12.7110533
"Neuehrenfeld, Köln, Nordrhein-Westfalen","Neuehrenfeld, Köln, Germany",50.9560533,6.925285199999999
"Kronach, Bayern","96317 Kronach, Germany",50.2359898,11.3310482
"Frankfurt(Oder), Brandenburg","Frankfurt an der Oder, Germany",52.3472237,14.5505673
"Ratekau, Schleswig-Holstein","Ratekau, Germany",53.9462188,10.7306937
"Neustadt an der Aisch, Bayern","91413 Neustadt an der Aisch, Germany",49.5795445,10.6139437
"Schiltach, Baden-Württemberg","77761 Schiltach, Germany",48.2917596,8.3468916
"Neustadt/Dosse, Brandenburg","Neustadt, Germany",52.8583917,12.4342718
"Dippoldiswalde, Sachsen","Dippoldiswalde, Germany",50.8951322,13.6684411
"Grevesmühlen, Mecklenburg-Vorpommern","Grevesmühlen, Germany",53.8600277,11.1906933
"Ludwigshafen am Rhei, Rheinland-Pfalz","Ludwigshafen, Germany",49.4774018,8.4447451
"Korbach, Hessen","34497 Korbach, Germany",51.2774069,8.8709876
"Zarrentin, Mecklenburg-Vorpommern","19246 Zarrentin am Schaalsee, Germany",53.54874909999999,10.9163473
"Langenorla, Thüringen","Langenorla, Germany",50.7411324,11.5781812
"Münnarstadt, Bayern","97702 Münnerstadt, Germany",50.247561,10.1944102
"Frauenwald, Thüringen","Frauenwald, Germany",50.5841236,10.8580288
"Backnang, Baden-Württemberg","Backnang, Germany",48.9471455,9.434181299999999
"Wattenscheid, Nordrhein-Westfalen","Wattenscheid, Bochum, Germany",51.4686409,7.1454673
"Marpingen, Saarland","66646 Marpingen, Germany",49.4516231,7.0574135
"Wesendorf, Niedersachsen","29392 Wesendorf, Germany",52.5933059,10.5368179
"Heiligenstadt, Thüringen","37308 Heilbad Heiligenstadt, Germany",51.37702969999999,10.1439107
"Iphofen, Bayern","97346 Iphofen, Germany",49.7019444,10.2578246
"Neustadt (Dosse), Brandenburg","Neustadt, Germany",52.8583917,12.4342718
"Oberstaufen, Bayern","Oberstaufen, Germany",47.5570001,10.0205624
"Neunkirchen , Saarland","Neunkirchen, Germany",49.348932,7.1780408
"Tussenhausen, Bayern","86874 Tussenhausen, Germany",48.1012609,10.560921
"Kleinostheim, Bayern","Kleinostheim, Germany",50.0042304,9.0658932
"Zülpich, Nordrhein-Westfalen","53909 Zülpich, Germany",50.6938699,6.6549936
"Scheeßel, Niedersachsen","27383 Scheeßel, Germany",53.1697267,9.4870781
"Ramstein-Miesenbach, Rheinland-Pfalz","66877 Ramstein-Miesenbach, Germany",49.445759,7.554540399999999
"Freudenstadt, Baden-Württemberg","72250 Freudenstadt, Germany",48.4644796,8.4179988
"Halle/Saale, Sachsen-Anhalt","Halle (Saale), Germany",51.49535669999999,11.9662371
"Bergheim, Bayern","86673 Bergheim, Germany",48.7616671,11.256683
"Steinheim, Baden-Württemberg","89555 Steinheim am Albuch, Germany",48.6917903,10.0638942
"Arnsdorf, Sachsen","Arnsdorf, Germany",51.0944429,13.9905116
"Dachau, Bayern","85221 Dachau, Germany",48.26315289999999,11.4341515
"Au, Bayern","84072 Au in der Hallertau, Germany",48.5590217,11.7375805
"Wittstock (Dosse), Brandenburg","Wittstock, Germany",53.2045159,12.5538862
"Farmsen, Hamburg, Hamburg","Farmsen-Berne, Hamburg, Germany",53.6107299,10.116584
"Mihla, Thüringen","Mihla, 99826 Amt Creuzburg, Germany",51.07671449999999,10.3314013
"Tanna, Thüringen","07922 Tanna, Germany",50.49402490000001,11.8627586
"Treuen, Sachsen","Treuen, Germany",50.5435567,12.2993698
"Halberstadt , Sachsen-Anhalt","Halberstadt, Germany",51.8916475,11.0488695
"Gornau, Sachsen","Gornau, Germany",50.7590143,13.0350645
"Osterburg in der Altmark, Sachsen-Anhalt","Saxony-Anhalt, Germany",51.9502649,11.6922735
"Lichtenau (Westfalen), Nordrhein-Westfalen","33165 Lichtenau, Germany",51.6165767,8.895116600000001
"Hermeskeil, Rheinland-Pfalz","Hermeskeil, Germany",49.65546029999999,6.943243
"Düren, Nordrhein-Westfalen","Düren, Germany",50.8037183,6.4793683
"Neukirchen-Seelscheid, Nordrhein-Westfalen","Neunkirchen-Seelscheid, Germany",50.8552827,7.331858599999999
"Freigericht, Hessen","Freigericht, Germany",50.1431461,9.143807299999999
"Hückelhoven, Nordrhein-Westfalen","41836 Hückelhoven, Germany",51.0532772,6.2226357
"Königsbach-Stein, Baden-Württemberg","75203 Königsbach-Stein, Germany",48.96422099999999,8.6231225
"Freilassing, Bayern","83395 Freilassing, Germany",47.84199820000001,12.9728226
"Langenhagen, Niedersachsen","Langenhagen, Germany",52.4528001,9.7443992
"Traunreut, Bayern","Traunreut, Germany",47.9617026,12.5987194
"Zinnwald, Sachsen","Zinnwald-Georgenfeld, 01773 Altenberg, Germany",50.7369766,13.7573076
"Schwarzbach, Brandenburg","Schwarzbach, Germany",51.4515428,13.9353851
"Barmstedt, Schleswig-Holstein","25355 Barmstedt, Germany",53.7905563,9.769214900000001
"Hemmingstedt, Schleswig-Holstein","25770 Hemmingstedt, Germany",54.1472704,9.0720975
"Hohenstein-Ernstthal, Sachsen","Hohenstein-Ernstthal, Germany",50.8009829,12.7132681
"Panketal, Brandenburg","Panketal, Germany",52.6509175,13.5407777
"Bismark in der Altmark, Sachsen-Anhalt","Bismark, Germany",52.662257,11.5246096
"Gardelegen, Sachsen-Anhalt","Gardelegen, Germany",52.5268133,11.401844
"Oschersleben an der Bode, Sachsen-Anhalt","Oschersleben, Germany",52.0271323,11.22858
"Wülknitz, Sachsen","Wülknitz, Germany",51.3701062,13.3902196
"Schleswig, Schleswig-Holstein","24837 Schleswig, Germany",54.5249669,9.560847599999999
"Xanten, Nordrhein-Westfalen","46509 Xanten, Germany",51.65710809999999,6.4486504
"Miltenberg, Bayern","63897 Miltenberg, Germany",49.7019294,9.2559213
"Duisburg, Nordrhein-Westfalen","Duisburg, Germany",51.4344079,6.762329299999999
"Schattenberg, Bayern","Schattenberg, 87561 Oberstdorf, Germany",47.4019444,10.3158333
"Bad Bodenteich, Niedersachsen","29389 Bad Bodenteich, Germany",52.8328646,10.6741739
"Neustetten, Baden-Württemberg","Neustetten, Germany",48.4821271,8.882788099999999
"Fehmarn, Schleswig-Holstein","Fehmarn, 23769 Fehmarn, Germany",54.47005369999999,11.132927
"Leegebruch, Brandenburg","Leegebruch, Germany",52.72173249999999,13.1935992
"Mindelheim, Bayern","87719 Mindelheim, Germany",48.0461744,10.4948841
"Waddeweitz, Niedersachsen","29496 Waddeweitz, Germany",52.9961694,10.9593444
"Löcknitz, Mecklenburg-Vorpommern","17321 Löcknitz, Germany",53.4550812,14.2142783
"Singen, Baden-Württemberg","78224 Singen, Germany",47.7670971,8.8722387
"Markneukirchen, Sachsen","Markneukirchen, Germany",50.31156989999999,12.3281398
"Hemhofen, Bayern","Hemhofen, Germany",49.6835534,10.937424
"Großenhain, Sachsen","Grossenhain, Germany",51.2912275,13.531304
"Neustadt-Glewe, Mecklenburg-Vorpommern","Neustadt-Glewe, Germany",53.374297,11.5913601
"Rüsselsheim, Hessen","65428 Rüsselsheim, Germany",49.9887497,8.4216976
"Plattling, Bayern","94447 Plattling, Germany",48.7806071,12.8690362
"Pfarrkirchen, Brandenburg","84347 Pfarrkirchen, Germany",48.43192310000001,12.9378735
"Schwerin, Mecklenburg-Vorpommern","Schwerin, Germany",53.6355022,11.4012499
"Wistedt, Niedersachsen","Wistedt, Germany",53.2696069,9.6773308
"Heldenstein, Bayern","84431 Heldenstein, Germany",48.2405766,12.3638194
"Sulz am Neckar, Baden-Württemberg","72172 Sulz, Germany",48.3537106,8.6344165
"Neustadt-Glew, Mecklenburg-Vorpommern","Neustadt-Glewe, Germany",53.40053700000001,11.60276
"Peine, Niedersachsen","Peine, Germany",52.3204095,10.243267
"Werneuchen, Brandenburg","16356 Werneuchen, Germany",52.6300024,13.7358711
"Bodenheim, Rheinland-Pfalz","Bodenheim, Germany",49.9292948,8.312674
"Kronshagen, Schleswig-Holstein","Kronshagen, Germany",54.33648729999999,10.087652
"Köln, Hessen","Hessen, Germany",50.6520515,9.162437599999999
"Anröchte, Nordrhein-Westfalen","59609 Anröchte, Germany",51.5622033,8.3256218
"Rosenfeld, Baden-Württemberg","72348 Rosenfeld, Germany",48.2861612,8.7231852
"Regenstauf, Bayern","93128 Regenstauf, Germany",49.12175999999999,12.1303873
"Mayen, Rheinland-Pfalz","Mayen, Germany",50.3279651,7.2272626
"Kirchberg, Sachsen","Kirchberg, Germany",50.6223188,12.5224525
"Wangen im Allgäu, Baden-Württemberg","88239 Wangen im Allgäu, Germany",47.6874999,9.8318005
"Prenzlau, Brandenburg","17291 Prenzlau, Germany",53.3173433,13.8633409
"Moosthenning, Bayern","84164 Moosthenning, Germany",48.6765099,12.4977582
"Bernburg/Saale, Sachsen-Anhalt","Bernburg, Germany",51.7916385,11.7400999
"Northeim, Niedersachsen","37154 Northeim, Germany",51.7013769,9.995866000000001
"Klein Berkel, Hameln, Niedersachsen","Klein Berkel, 31789 Hamelin, Germany",52.08404239999999,9.3451419
"Lonsee, Baden-Württemberg","89173 Lonsee, Germany",48.5405915,9.9226157
"Essenbach, Bayern","84051 Essenbach, Germany",48.613384,12.2188601
"Küssaberg, Baden-Württemberg","79790 Küssaberg, Germany",47.6109517,8.2965392
"Waren an der Müritz, Mecklenburg-Vorpommern","17192 Waren, Germany",53.5161667,12.6818562
"Wünsdorf, Brandenburg","Wünsdorf, Zossen, Germany",52.1639499,13.4747883
"Veitsbronn, Bayern","Veitsbronn, Germany",49.51201409999999,10.8845724
"Wangen, Baden-Württemberg","73117 Wangen, Germany",48.7266437,9.6094952
"Naumburg (Saale), Sachsen-Anhalt","Naumburg, Germany",51.1520283,11.8142454
"Teveren, Geilenkirchen, Nordrhein-Westfalen","Teveren, 52511 Geilenkirchen, Germany",50.9521785,6.0798071
"Simbach am Inn, Bayern","84359 Simbach am Inn, Germany",48.2675863,13.0273628
"Kölleda, Thüringen","99625 Kölleda, Germany",51.1888131,11.2488053
"Kierspe, Nordrhein-Westfalen","58566 Kierspe, Germany",51.130264,7.5988644
"Thermalbad Wiesenbad, Sachsen","Thermalbad Wiesenbad, Germany",50.6107239,13.0201015
"Duisburg-Hochfeld, Nordrhein-Westfalen","Hochfeld, Duisburg, Germany",51.4183438,6.7473224
"Baddeckenstedt, Niedersachsen","Baddeckenstedt, Germany",52.0861685,10.2322259
"Rosenthal-Bielatal, Sachsen","01824 Rosenthal-Bielatal, Germany",50.84259729999999,14.0667417
"Pullach, Bayern","82049 Pullach, Germany",48.05745040000001,11.519143
"Holzminden, Niedersachsen","37603 Holzminden, Germany",51.8238111,9.4558926
"Neustadt (Hessen), Hessen","35279 Neustadt, Germany",50.8525599,9.115319999999999
"Bad Düben, Sachsen","Bad Düben, Germany",51.5943957,12.5893753
"Steinebach (Sieg), Rheinland-Pfalz","Steinebach/Sieg, Germany",50.7332725,7.8274345
"Börger, Niedersachsen","26904 Börger, Germany",52.9130896,7.5396518
"Wiggensbach, Bayern","Wiggensbach, Germany",47.745133,10.2314395
"Wiedemar, Sachsen","Wiedemar, Germany",51.46732429999999,12.2041542
"Ettlingen, Baden-Württemberg","76275 Ettlingen, Germany",48.943208,8.3980172
"Gersfeld (Rhön), Hessen","36129 Gersfeld, Germany",50.4495079,9.9196373
"Küstriner Vorland, Brandenburg","15328 Küstriner Vorland, Germany",52.5659958,14.5721535
"Geretsried, Bayern","82538 Geretsried, Germany",47.8552232,11.4871747
"Jörl, Schleswig-Holstein","24992 Jörl, Germany",54.6235361,9.2621365
"Kutenholz, Niedersachsen","27449 Kutenholz, Germany",53.4812036,9.3228112
"Bredstedt, Schleswig-Holstein","25821 Bredstedt, Germany",54.61960089999999,8.965738199999999
"Niederzwehren, Kassel, Hessen","Niederzwehren, Kassel, Germany",51.2799224,9.470997299999999
"Jahnsdorf, Sachsen","Jahnsdorf, Germany",50.7460399,12.8544599
"Illertissen, Bayern","Illertissen, Germany",48.2253313,10.1012701
"Frankfurt/Main, Hessen","Frankfurt, Germany",50.1109221,8.6821267
"Hardegsen, Niedersachsen","37181 Hardegsen, Germany",51.65268289999999,9.828544599999999
"Bietigheim-Bissingen, Baden-Württemberg","Bietigheim-Bissingen, Germany",48.9471605,9.1305037
"Harzgerode, Sachsen-Anhalt","Harzgerode, Germany",51.6408843,11.1433484
"Daun, Rheinland-Pfalz","54550 Daun, Germany",50.1961469,6.8353723
"Rechlin, Mecklenburg-Vorpommern","17248 Rechlin, Germany",53.3309808,12.7218595
"Straufhain, Thüringen","98646 Straufhain, Germany",50.3571257,10.6859537
"Frankenberg an der Eder, Hessen","35066 Frankenberg (Eder), Germany",51.057117,8.8043709
"Kirchberg an der Murr , Baden-Württemberg","71737 Kirchberg an der Murr, Germany",48.9425755,9.3417915
"Lutzerath, Rheinland-Pfalz","56826 Lutzerath, Germany",50.1266815,7.0075042
"Rommerskirchen , Nordrhein-Westfalen","41569 Rommerskirchen, Germany",51.0349879,6.6894908
"Laucha, Sachsen-Anhalt","Laucha an der Unstrut, Germany",51.2242681,11.6731446
"Felixsee, Brandenburg","03130 Felixsee, Germany",51.5978007,14.5213159
"Michelau, Bayern","96247 Michelau in Oberfranken, Germany",50.1657828,11.1096466
"Lychen, Brandenburg","Lychen, Germany",53.21087,13.31541
"Volkmarsen, Hessen","34471 Volkmarsen, Germany",51.4073825,9.1181094
"Rimbach, Bayern","93485 Rimbach, Germany",49.2311346,12.8811139
"Heidesee, Brandenburg","15754 Heidesee, Germany",52.2495142,13.7814957
"Steinberg, Schleswig-Holstein","Steinberg, Germany",54.7545686,9.7858573
"Ludwigshafen, Rheinland-Pfalz","Ludwigshafen, Germany",49.4774018,8.4447451
"Merseburg, Sachsen-Anhalt","Merseburg, Germany",51.3563278,11.9917462
"Erbach, Baden-Württemberg","89155 Erbach an der Donau, Germany",48.3273294,9.8926673
"Brakel, Nordrhein-Westfalen","33034 Brakel, Germany",51.7174281,9.1826223
"Anger, Bayern","83454 Anger, Germany",47.8001538,12.8659556
"Niderau, Sachsen","01689 Niederau, Germany",51.1760715,13.5549345
"Stuhr, Niedersachsen","28816 Stuhr, Germany",53.0289775,8.7361402
"Herten, Nordrhein-Westfalen","Herten, Germany",51.6020534,7.1389575
"Ludwigsburg, Baden-Württemberg","Ludwigsburg, Germany",48.8891149,9.1942834
"Hachenburg, Rheinland-Pfalz","Hachenburg, Germany",50.6594651,7.820962199999999
"Schönberg, Mecklenburg-Vorpommern","Schönberg, Germany",53.8512438,10.9269483
"Ingersheim, Baden-Württemberg","74379 Ingersheim, Germany",48.9610189,9.1817222
"Worbis, Thüringen","Worbis, 37339 Leinefelde-Worbis, Germany",51.4172225,10.3663239
"Schwelm, Nordrhein-Westfalen","Schwelm, Germany",51.2882674,7.291086
"Lauda- Königshofen, Baden-Württemberg","97922 Lauda-Königshofen, Germany",49.56511250000001,9.7003795
"Burtenbach, Bayern","89349 Burtenbach, Germany",48.3394733,10.4481971
"Schleusingen, Thüringen","Schleusingen, Germany",50.5088198,10.7485253
"Godendorf, Mecklenburg-Vorpommern","Godendorf, Germany",53.2570174,13.1542478
"Dessau, Sachsen-Anhalt","Dessau, Dessau-Roßlau, Germany",51.83081660000001,12.2423302
"Rotenburg (Wümme), Niedersachsen","27356 Rotenburg, Germany",53.10350760000001,9.3970716
"Lohne (Oldenburg), Niedersachsen","49393 Lohne, Germany",52.6505733,8.262597999999999
"Pohlheim, Hessen","35415 Pohlheim, Germany",50.50832150000001,8.7246052
"Göppingen, Baden-Württemberg","Göppingen, Germany",48.7054382,9.6512491
"Schwarzenberg/Erzgebirge, Sachsen","Schwarzenberg, Germany",50.5425641,12.7792228
"Ehingen, Baden-Württemberg","89584 Ehingen, Germany",48.2928997,9.6612347
"Großräsch, Brandenburg","Großräschen, Germany",51.59766519999999,14.0015078
"Seelze, Niedersachsen","30926 Seelze, Germany",52.3949194,9.5939408
"Creußen, Bayern","95473 Creußen, Germany",49.844164,11.6267106
"Stralsund, Nordrhein-Westfalen","Stralsund, Germany",54.30906539999999,13.0770347
"Neukirchen an der Pleiße, Sachsen","Neukirchen, Germany",50.792803,12.3793864
"Kirchhundem, Nordrhein-Westfalen","57399 Kirchhundem, Germany",51.0865154,8.089385499999999
"Dasing, Bayern","86453 Dasing, Germany",48.3830733,11.0473117
"Perleberg, Brandenburg","Perleberg, Germany",53.08196419999999,11.8598787
"Bramsche, Niedersachsen","49565 Bramsche, Germany",52.4077183,8.0015624
"Mainz, Rheinland-Pfalz","Mainz, Germany",49.9928617,8.2472526
"Neustadt, Brandenburg","Neustadt, 14776 Brandenburg, Germany",52.4087833,12.5629508
"Ganderkesee, Niedersachsen","27777 Ganderkesee, Germany",53.0349245,8.5426865
"Torstedt, Niedersachsen","Tostedt, Germany",53.2779864,9.6911655
"Handewitt, Schleswig-Holstein","Handewitt, Germany",54.7703366,9.324508
"Weiskirchen, Saarland","66709 Weiskirchen, Germany",49.5556107,6.8189587
"Grünewald, Brandenburg","01945 Grünewald, Germany",51.40177749999999,13.9971917
"Kirschberg, Bayern","Kirchberg, Germany",48.4053477,12.0482316
"Dierhagen, Mecklenburg-Vorpommern","Dierhagen, Germany",54.292092,12.3530529
"Burg bei Magdeburg, Sachsen-Anhalt","Burg bei Magdeburg, Germany",52.2709013,11.8553502
"Heiligenhafen, Schleswig-Holstein","Heiligenhafen, Germany",54.36967989999999,10.97561
"Fürstenfeldbruck, Bayern","82256 Fürstenfeldbruck, Germany",48.1739373,11.2430079
"Köln, Nordrhein-Westfalen","Cologne, Germany",50.937531,6.9602786
"Leiningen, Rheinland-Pfalz","56291 Leiningen, Germany",50.1324046,7.570662700000001
"Malchin, Mecklenburg-Vorpommern","17139 Malchin, Germany",53.7387148,12.7666597
"Neustadt, Rheinland-Pfalz","Neustadt, Germany",49.3501864,8.1486886
"Ahrensburg , Schleswig-Holstein","Ahrensburg, Germany",53.6764136,10.2378854
"Reichenberg, Sachsen","Reichenberg, 01468 Moritzburg, Germany",51.1290337,13.6809259
"Weißensee, Berlin","Weissensee, Berlin, Germany",52.5538804,13.4675453
"Zeven, Niedersachsen","27404 Zeven, Germany",53.2939692,9.2759477
"Weiden, Bayern","Weiden, Germany",49.6743636,12.1489337
"Borna, Sachsen","Borna, Germany",51.1245977,12.4923222
"Pforzheim, Baden-Württemberg","Pforzheim, Germany",48.8921862,8.6946286
"Hohentwiel, Singen, Baden-Württemberg","Hohentwiel, 78224 Singen (Hohentwiel), Germany",47.7678555,8.8190997
"St. Wendel , Saarland","66606 Sankt Wendel, Germany",49.4677707,7.169062499999999
"Gersheim, Saarland","66453 Gersheim, Germany",49.1475624,7.203443200000001
"Borbeck, Essen, Nordrhein-Westfalen","Essen-Borbeck-Mitte, Essen, Germany",51.4751573,6.948362
"Nettetal, Nordrhein-Westfalen","41334 Nettetal, Germany",51.3262794,6.272100099999999
"Kolkwitz, Brandenburg","03099 Kolkwitz, Germany",51.74979709999999,14.2506578
"Furth im Wald, Bayern","93437 Furth im Wald, Germany",49.3101132,12.8387951
"Weßling, Bayern","82234 Weßling, Germany",48.0745018,11.2483111
"Arnbruck, Bayern","93471 Arnbruck, Germany",49.1308271,12.9984383
"Pressath, Bayern","92690 Pressath, Germany",49.7661837,11.9412396
"Eigeltingen , Baden-Württemberg","78253 Eigeltingen, Germany",47.8582264,8.897488100000002
"Munster, Niedersachsen","29633 Munster, Germany",52.988761,10.0888477
"Artern/Unstrut, Thüringen","06556 Artern, Germany",51.3673649,11.2954854
"Neuching, Bayern","85467 Neuching, Germany",48.25149940000001,11.8442859
"Bad Wurzach, Baden-Württemberg","88410 Bad Wurzach, Germany",47.9081917,9.8938287
"Johannstadt, Dresden, Sachsen","Johannstadt, Dresden, Germany",51.051662,13.7663115
"Weinstadt, Baden-Württemberg","Weinstadt, Germany",48.8108645,9.364447499999999
"Remptendorf, Thüringen","Remptendorf, Germany",50.52871469999999,11.6597513
"Steinbach-Hallenberg, Thüringen","98587 Steinbach-Hallenberg, Germany",50.69531869999999,10.5655163
"Weisen, Brandenburg","Weisen, Germany",53.0252322,11.7869304
"Alzenau in Unterfranken, Bayern","Alzenau, Germany",50.0894084,9.058741399999999
"Marzahn-Hellersdorf, Berlin","Marzahn-Hellersdorf, Berlin, Germany",52.5229353,13.5765972
"Süßen, Baden-Württemberg","Süßen, Germany",48.67984509999999,9.7567784
"Königsdorf, Bayern","82549 Königsdorf, Germany",47.8163918,11.481009
"Darmstadt, Hessen","Darmstadt, Germany",49.8728253,8.6511929
"Meisenheim, Rheinland-Pfalz","Meisenheim, Germany",49.7079507,7.666639300000001
"Münster, Nordrhein-Westfalen","Münster, Germany",51.9606649,7.6261347
"Havelberg, Sachsen-Anhalt","39539 Havelberg, Germany",52.8326422,12.0763942
"Lobstädt, Neukieritzsch, Sachsen","Lobstädter Str., 04575 Neukieritzsch, Germany",51.1519876,12.4167797
"Oschersleben/ Bode, Sachsen-Anhalt","Oschersleben, Germany",52.0271323,11.22858
"Delbrück, Nordrhein-Westfalen","33129 Delbrück, Germany",51.7650575,8.5620753
"Eutin, Schleswig-Holstein","23701 Eutin, Germany",54.1319978,10.6139151
"Mehlbach, Rheinland-Pfalz","67735 Mehlbach, Germany",49.5219634,7.717158299999999
"Pähl, Bayern","Pähl, Germany",47.90488089999999,11.176396
"Weißenburg in Bayern, Bayern","91781 Weissenburg in Bayern, Germany",49.0329644,10.9719688
"Kefenrod, Hessen","63699 Kefenrod, Germany",50.3449697,9.2110189
"Hersbruck, Bayern","91217 Hersbruck, Germany",49.50777120000001,11.430538
"Glatten, Baden-Württemberg","Glatten, Germany",48.44395919999999,8.513212099999999
"Katlenburg-Lindau, Niedersachsen","37191 Katlenburg-Lindau, Germany",51.6510486,10.0936577
"Markkleeberg, Sachsen","Markkleeberg, Germany",51.2748681,12.3664574
"Obernburg am Main, Bayern","63785 Obernburg, Germany",49.8381779,9.132358499999999
"Heddesheim, Baden-Württemberg","68542 Heddesheim, Germany",49.5077027,8.6059128
"Twist, Niedersachsen","49767 Twist, Germany",52.63833700000001,7.106385299999999
"Landau, Rheinland-Pfalz","Landau, Germany",49.19888599999999,8.1185622
"Kalletal, Nordrhein-Westfalen","32689 Kalletal, Germany",52.1067915,8.9481355
"Dahlen, Sachsen","Dahlen, Germany",51.3622295,12.9958666
"Herford, Nordrhein-Westfalen","Herford, Germany",52.1180196,8.677477200000002
"Gemünden, Rheinland-Pfalz","55490 Gemünden, Germany",49.8957978,7.480340099999999
"Efringen-Kirchen, Baden-Württemberg","79588 Efringen-Kirchen, Germany",47.6561741,7.562046499999999
"Neukirchen-Vluyn, Nordrhein-Westfalen","47506 Neukirchen-Vluyn, Germany",51.4423827,6.5537259
